OSEBuildingID,DataYear,BuildingType,PrimaryPropertyType,PropertyName,Address,ZipCode,CouncilDistrictCode,Neighborhood,Latitude,Longitude,YearBuilt,NumberofFloors,NumberofBuildings,PropertyGFATotal,PropertyGFAParking,YearsENERGYSTARCertified,ENERGYSTARScore,SiteEUI(kBtu/sf),SiteEUIWN(kBtu/sf),SourceEUI(kBtu/sf),SourceEUIWN(kBtu/sf),SiteEnergyUse(kBtu),SiteEnergyUseWN(kBtu),SteamUse(kBtu),Electricity(kBtu),Electricity(kWh),NaturalGas(therms),NaturalGas(kBtu),GHGEmissions(MetricTonsCO2e),GHGEmissionsIntensity(kgCO2e/ft2)
1,2017,NonResidential,Hotel,Mayflower park hotel,405 Olive way,98101.0,7.0,DOWNTOWN,47.6122,-122.33799,1927,12,1.0,88434,0,0.0,63.0,83.2,82.3,184.4,181.6,7361655,7274452,2122835,3950356,1157783,12884,1288462,197.63,2.235
2,2017,NonResidential,Hotel,Paramount Hotel,724 Pine street,98101.0,7.0,DOWNTOWN,47.61317,-122.33393,1996,11,1.0,103566,15064,0.0,72.0,88.2,86.8,163.8,159.8,7804844,7678810,0,3016757,884161,47880,4788086,266.78,2.576
3,2017,Campus,Hotel,84SC9-The Westin Seattle,1900 5th Avenue,98101.0,7.0,DOWNTOWN,47.61393,-122.3381,1969,41,1.0,956110,196718,0.0,48.0,98.4,98.2,242.9,242.6,74470328,74311368,24313482,48712840,14276917,14440,1444000,1570.75,1.643
5,2017,NonResidential,Hotel,HOTEL MAX,620 STEWART ST,98101.0,7.0,DOWNTOWN,47.61412,-122.33664,1926,10,1.0,61320,0,0.0,51.0,120.2,119.0,234.3,230.3,7372221,7294312,2228119,3008513,881744,21355,2135587,244.32,3.984
8,2017,NonResidential,Hotel,WARWICK SEATTLE HOTEL (ID8),401 LENORA ST,98121.0,7.0,DOWNTOWN,47.61375,-122.34047,1980,18,1.0,175580,62000,0.0,78.0,116.1,114.1,209.9,205.5,14335778,14081251,0,5198201,1523505,91375,9137575,506.8,2.886
9,2017,Nonresidential COS,Other,West Precinct,810 Virginia St,98101.0,7.0,DOWNTOWN,47.61623,-122.33657,1999,2,1.0,97288,37198,0.0,,261.1,261.0,591.7,591.4,13250532,13249402,0,7711199,2260023,55393,5539331,326.1,3.352
10,2017,NonResidential,Hotel,Camlin,1619 9th Avenue,98101.0,7.0,DOWNTOWN,47.6139,-122.33283,1926,11,1.0,83008,0,0.0,33.0,72.5,70.8,148.6,143.3,5901084,5763338,0,2821450,826919,30796,3079632,175.23,2.111
11,2017,NonResidential,Other,Paramount Theatre,911 Pine St,98101.0,7.0,DOWNTOWN,47.61327,-122.33136,1926,8,1.0,102761,0,0.0,,71.6,69.8,161.8,159.7,7356191,7176510,2886288,4048362,1186507,4215,421539,192.57,1.874
12,2017,NonResidential,Hotel,311wh-Pioneer Square,612 2nd Ave,98104.0,7.0,DOWNTOWN,47.60294,-122.33263,1904,15,1.0,163984,0,0.0,44.0,90.5,89.9,188.2,186.1,14847579,14735695,0,7306577,2141435,75410,7541000,430.73,2.627
13,2017,Multifamily MR (5-9),Mid-Rise Multifamily,Lyon Building,607 - 3rd Ave.,98104.0,7.0,DOWNTOWN,47.60284,-122.33184,1910,6,1.0,63712,1496,0.0,2.0,89.8,89.5,189.5,189.1,5042044,5022714,1511604,2445026,716596,10854,1085413,148.12,2.325
15,2017,NonResidential,Hotel,Hotel Monaco Seattle,1101 4th Avenue,98101.0,7.0,DOWNTOWN,47.60695,-122.33414,1969,11,1.0,153163,19279,0.0,35.0,120.0,119.2,227.0,225.9,16066496,15958532,5702268,6051790,1773678,43124,4312437,557.21,3.638
16,2017,NonResidential,Hotel,42SCF-W Seattle,1112 Fourth Avenue,98101.0,7.0,DOWNTOWN,47.60713,-122.33323,1998,25,1.0,333176,61161,0.0,38.0,88.4,87.1,217.2,213.1,27806852,27384446,6340211,18259237,5351476,32074,3207400,582.94,1.75
17,2017,NonResidential,Hotel,Executive Pacific Plaza,400 Spring Street,98104.0,7.0,DOWNTOWN,47.60699,-122.33346,1928,9,1.0,65009,0,0.0,94.0,73.0,73.0,88.5,88.5,4742757,4742757,1569480,253895,74412,29193,2919380,239.53,3.685
18,2017,NonResidential,Hotel,Crowne Plaza Hotel Seattle,1113 6th Ave,98101.0,7.0,DOWNTOWN,47.60809,-122.33212,1980,33,1.0,353111,57600,0.0,65.0,75.4,0.0,176.7,0.0,22282796,0,0,13684145,4010593,72189,7218978,440.01,1.246
19,2017,NonResidential,Hotel,Hotel Vintage Seattle,1100 5th Avenue,98101.0,7.0,DOWNTOWN,47.60755,-122.33244,1922,11,1.0,92190,25200,0.0,34.0,172.2,171.3,310.8,309.7,11603445,11542387,5626128,3781231,1108215,21960,2196084,431.37,4.679
21,2017,Nonresidential COS,Other,The Seattle Public Library - Central Library,1000 Fourth Avenue,98154.0,7.0,DOWNTOWN,47.60649,-122.33297,2004,11,1.0,412000,57000,0.0,,43.7,43.6,133.2,133.1,15986807,15965283,753683,15233121,4464572,0,0,103.09,0.25
22,2017,NonResidential,Other,Downtown Seattle YMCA,909 4th Avenue,98104.0,7.0,DOWNTOWN,47.60546,-122.33279,1930,6,1.0,103911,0,0.0,,93.7,93.7,190.4,190.4,12175522,12177365,5704005,5305695,1555010,11658,1165821,387.1,3.725
23,2017,NonResidential,Hotel,Renaissance Seattle Hotel,515 Madison Street,98104.0,7.0,DOWNTOWN,47.60681,-122.33078,1983,28,1.0,416281,85000,0.0,37.0,97.5,95.7,226.7,222.3,33959408,33326178,0,20715717,6071429,132436,13243685,789.08,1.896
24,2017,NonResidential,Mixed Use Property,The Rainier Club,820 4th Ave.,98104.0,7.0,DOWNTOWN,47.60515,-122.33159,1907,5,1.0,57452,0,0.0,,129.1,128.3,263.8,262.9,7418679,7371858,1574400,3408358,998932,24359,2435919,227.17,3.954
25,2017,NonResidential,Hotel,Arctic Club Seattle,700 3rd Ave,98104.0,7.0,DOWNTOWN,47.60376,-122.33194,1916,10,1.0,104352,0,0.0,53.0,85.1,85.1,205.1,205.1,8884319,8884319,2744007,5575491,1634083,5648,564820,198.94,1.906
26,2017,NonResidential,Other,King County Courthouse,516 3RD AVE,98104.0,7.0,DOWNTOWN,47.60265,-122.33051,1916,10,1.0,540360,0,0.0,75.0,91.0,89.6,192.0,190.5,48880476,48101932,0,24781750,7263115,240987,24098721,1382.41,2.558
27,2017,NonResidential,Other,King County Correctional Facility,500 5TH AVE,98104.0,3.0,DOWNTOWN,47.60378,-122.32842,1985,19,1.0,385274,0,0.0,,124.0,123.0,210.2,209.2,47756124,47386200,0,14754917,4324419,330012,33001203,1813.74,4.708
28,2017,SPS-District K-12,K-12 School,Graham Hill Elementary,5149 S. Graham St.,98118.0,2.0,SOUTHEAST,47.54576,-122.26853,1961,2,1.0,56228,0,0.0,95.0,28.6,27.8,61.6,60.9,1682550,1639540,0,891721,261348,7908,790829,45.69,0.813
29,2017,NonResidential,Hotel,WATERTOWN HOTEL,4242 ROOSEVELT WAY NE,98105.0,4.0,NORTHEAST,47.65959,-122.31755,2001,6,1.0,88592,30586,0.0,90.0,57.0,56.0,131.2,128.8,3863650,3791958,0,2313280,677983,15503,1550368,91.91,1.037
30,2017,NonResidential,University,Main Campus Center,1000 Lenora St.,98121.0,7.0,DOWNTOWN,47.61816,-122.33629,1928,7,1.0,126593,0,0.0,,97.3,97.4,181.5,181.6,12163565,12169801,0,4747347,1391368,74162,7416217,413.52,3.266
32,2017,NonResidential,Hotel,Homewood Suites,1011 Pike ST,98101.0,7.0,EAST,47.61301,-122.32929,1991,8,1.0,158676,30301,0.0,,45.7,45.7,56.8,56.8,5351128,5351723,0,495830,145319,48552,4855297,259.92,1.638
33,2017,NonResidential,Hotel,Marriott Springhill Suites,1800 Yale Ave,98101.0,7.0,DOWNTOWN,47.61784,-122.32966,2001,10,1.0,171866,38281,0.0,58.0,89.8,88.2,186.6,183.3,11581091,11364507,0,5694083,1668840,58870,5887006,336.22,1.956
34,2017,SPS-District K-12,K-12 School,Meany Building,301/300 21st Ave. E.,98112.0,3.0,Central,47.62266,-122.30547,1955,1,1.0,126351,0,0.0,99.0,27.4,27.4,41.5,41.5,3468018,3462376,0,767933,225068,27000,2700084,146.58,1.16
35,2017,NonResidential,Hotel,Hotel Five,2200 5th ave,98121.0,7.0,DOWNTOWN,47.61558,-122.34186,1978,5,1.0,68410,16200,0.0,71.0,83.8,83.0,184.7,182.1,4376607,4332159,0,2416376,708199,19602,1960229,114.1,1.668
36,2017,SPS-District K-12,K-12 School,Jane Addams Middle,11051 34th Ave. N.E.,98125.0,5.0,NORTH,47.70994,-122.29301,1949,2,1.0,160645,0,0.0,70.0,48.0,46.4,74.5,72.8,7890891,7620227,0,1891909,554486,59989,5998982,326.43,2.032
37,2017,SPS-District K-12,K-12 School,John Hay Elementary,201 Garfield St.,98109.0,7.0,MAGNOLIA / QUEEN ANNE,47.6329,-122.35172,1989,2,1.0,51582,0,0.0,96.0,26.6,26.6,83.5,83.6,1467507,1468128,0,1467506,430101,0,0,6.07,0.118
38,2017,NonResidential,Small- and Mid-Sized Office,Good Shepherd Center,4649 Sunnyside Ave. N.,98070.0,1.0,LAKE UNION,47.6641,-122.33118,1906,3,1.0,87262,0,0.0,,67.1,65.4,108.5,106.8,4523929,4410662,0,1227619,359794,32963,3296308,180.15,2.064
40,2017,NonResidential,Hotel,Silver Cloud University,5036 25th Ave NE,98105.0,4.0,NORTHEAST,47.66583,-122.29965,1994,4,1.0,81871,0,0.0,28.0,87.7,86.5,173.9,170.4,7177935,7085024,0,3207640,940105,39702,3970294,224.13,2.738
41,2017,NonResidential,Self-Storage Facility,08781-University Village,2746 Ne 45th St Suite 100,98105.0,4.0,NORTHEAST,47.66172,-122.29598,1955,2,1.0,110356,0,0.0,,11.2,11.2,31.2,31.2,294099,293061,0,244299,71600,498,49800,3.66,0.033
43,2017,Campus,Mixed Use Property,Plant 2 Site,7755 E MARGINAL WAY S,98108.0,2.0,GREATER DUWAMISH,47.53493,-122.31788,1992,3,1.0,494835,0,0.0,,286.4,286.5,468.5,468.6,579302208,579556160,0,162398671,47596328,4169035,416903500,22813.61,46.103
46,2017,Campus,Warehouse,Seattle 11-13,3301 S NORFOLK ST,98118.0,2.0,GREATER DUWAMISH,47.51138,-122.28875,1961,2,3.0,714095,0,0.0,,47.0,46.9,147.6,147.4,45259796,45199188,0,45259791,13264886,0,0,187.24,0.262
50,2017,SPS-District K-12,K-12 School,Lawton Elementary,4000 27th Ave. W.,98199.0,7.0,MAGNOLIA / QUEEN ANNE,47.65671,-122.39047,1990,2,1.0,54986,0,2016.0,97.0,31.5,31.1,79.3,78.9,1733154,1712583,0,1215160,356143,5179,517993,32.54,0.592
51,2017,SPS-District K-12,K-12 School,Eckstein Middle,3003 N.E. 75th St.,98115.0,4.0,NORTHEAST,47.68252,-122.29498,1950,2,1.0,175565,0,0.0,91.0,41.5,40.8,61.9,61.2,7584022,7469367,0,1602005,469520,59820,5982016,324.33,1.847
52,2017,NonResidential,Small- and Mid-Sized Office,SBC52,5305 Shilshole Ave NW,98107.0,6.0,BALLARD,47.66587,-122.38476,1961,2,1.0,94900,0,0.0,58.0,70.5,69.3,167.5,166.1,6693368,6573501,0,4242691,1243461,24506,2450676,147.71,1.556
53,2017,NonResidential,Small- and Mid-Sized Office,El Centro de la Raza,2524 16th Ave S,98144.0,2.0,GREATER DUWAMISH,47.58034,-122.31132,1900,2,1.0,52554,0,0.0,95.0,40.8,40.2,76.9,76.2,2404192,2366052,0,958357,280878,14458,1445834,80.75,1.537
54,2017,NonResidential,K-12 School,Blanchet High School,8200 Wallingford Ave. N,98103.0,6.0,NORTHWEST,47.68891,-122.33553,1954,3,1.0,175015,0,0.0,92.0,48.9,47.5,83.6,82.1,8565306,8315324,0,2699299,791119,58660,5866005,322.71,1.844
55,2017,NonResidential,Self-Storage Facility,Vine Street,11 Vine Street,98121.0,7.0,DOWNTOWN,47.61351,-122.35129,1911,3,1.0,70586,0,0.0,,27.5,26.8,65.6,64.9,1938035,1889896,0,1239351,363233,6986,698683,42.23,0.598
56,2017,NonResidential,Hotel,Seattle Hilton Hotel,1301 Sixth Ave,98101.0,7.0,DOWNTOWN,47.60946,-122.33337,1969,24,1.0,332210,205970,0.0,84.0,43.9,0.0,100.4,0.0,15316728,0,0,9046481,2651372,62702,6270246,370.44,1.115
57,2017,NonResidential,Large Office,5th and Pine,413 Pine Street,98101.0,7.0,DOWNTOWN,47.6113,-122.33659,1973,5,1.0,168115,0,201820172016.0,85.0,56.4,55.5,177.2,174.1,9567585,9402433,0,9567584,2804098,0,0,39.58,0.235
58,2017,NonResidential,Other,1525 4th Avenue,1525 4th Ave,98101.0,7.0,DOWNTOWN,47.61076,-122.33765,1920,2,1.0,57428,0,0.0,,20.3,20.3,46.7,46.7,1164053,1164053,0,698961,204854,4650,465091,27.59,0.48
59,2017,NonResidential,Small- and Mid-Sized Office,Gibraltar Tower,1520 3rd Ave,98101.0,7.0,DOWNTOWN,47.61048,-122.33794,1910,8,1.0,59400,0,0.0,44.0,67.7,67.7,212.5,212.5,3720013,3720013,0,3720012,1090273,0,0,15.39,0.259
60,2017,NonResidential,Mixed Use Property,Mann Building,1401 3rd Avenue,98101.0,7.0,DOWNTOWN,47.60886,-122.33744,1926,2,1.0,52549,0,0.0,,307.6,304.5,510.0,506.4,16138114,15974657,0,4692127,1375184,114459,11445985,627.31,11.938
62,2017,NonResidential,Hotel,Roosevelt Hotel,1531 7th Ave,98101.0,7.0,DOWNTOWN,47.61233,-122.33432,1930,20,1.0,98634,10043,0.0,75.0,55.0,54.1,157.7,154.9,4871794,4791904,0,4237212,1241855,6345,634581,51.23,0.519
63,2017,Campus,Hotel,Sheraton Seattle Hotel,1400 6th Avenue,98101.0,7.0,DOWNTOWN,47.61087,-122.33339,1982,34,1.0,1083197,156583,0.0,62.0,86.4,85.9,192.0,191.4,85870096,85364488,12991603,47219596,13839272,256588,25658890,2248.74,2.076
65,2017,NonResidential,Hotel,Inn at the Market,86 Pine St,98101.0,7.0,DOWNTOWN,47.60997,-122.34138,1985,7,1.0,71150,0,0.0,98.0,94.0,94.0,215.8,215.8,5397353,5397353,0,3218277,943223,21790,2179075,129.05,1.814
66,2017,NonResidential,Hotel,Moore Hotel INC,1926 2nd Ave,98101.0,7.0,DOWNTOWN,47.61155,-122.34114,1908,7,1.0,122810,0,0.0,98.0,52.5,51.0,78.2,76.6,6445936,6263231,0,1355423,397251,50905,5090513,275.96,2.247
67,2017,NonResidential,Hotel,QUALITY INN,618 JOHN ST,98109.0,7.0,LAKE UNION,47.61986,-122.34413,1959,5,1.0,113173,42546,0.0,86.0,78.2,76.5,173.1,167.8,5524202,5403693,0,3074728,901151,24494,2449473,142.81,1.262
68,2017,NonResidential,Hotel,Rainier Hospitality,211 Dexter Ave N,98109.0,7.0,LAKE UNION,47.62001,-122.34274,2000,7,1.0,150453,34735,2014.0,84.0,63.9,63.0,135.3,132.7,7067429,6964738,0,3607881,1057409,34595,3459547,198.66,1.32
69,2017,NonResidential,Hotel,Sequim Lodging Corp,226 Aurora Ave N,98109.0,7.0,LAKE UNION,47.62025,-122.34314,1997,6,1.0,116300,28200,0.0,82.0,66.9,66.0,146.9,144.0,5923139,5840688,0,3243737,950685,26794,2679400,155.72,1.339
70,2017,NonResidential,Hotel,Homewood Suites by Hilton Seattle Downtonw,206 Western Ave West,98119.0,7.0,MAGNOLIA / QUEEN ANNE,47.62023,-122.35951,1998,6,1.0,155602,36744,0.0,85.0,45.3,44.4,107.8,105.0,7048202,6909994,0,4484683,1314385,25635,2563517,154.7,0.994
73,2017,NonResidential,K-12 School,Seattle Hebrew Academy,1617 Interlaken Drive East,98136.0,3.0,EAST,47.63442,-122.30793,1911,3,1.0,56072,0,0.0,70.0,64.1,62.3,87.9,86.0,3595219,3495458,0,552098,161810,30431,3043120,163.9,2.923
77,2017,NonResidential,Hotel,Comfort Suites Seattle Center,601 Roy St,98109.0,7.0,MAGNOLIA / QUEEN ANNE,47.62519,-122.34456,1999,4,1.0,122942,44891,0.0,93.0,72.5,71.7,144.0,141.3,5659957,5595112,0,2532541,742245,31274,3127416,176.57,1.436
82,2017,NonResidential,Small- and Mid-Sized Office,Dept of Social & Health Services,1700 E. Cherry St,98122.0,3.0,CENTRAL,47.60823,-122.30956,1962,2,1.0,54984,0,0.0,69.0,66.7,64.5,147.8,143.4,3667950,3544293,0,2045667,599550,16222,1622282,94.62,1.721
84,2017,NonResidential,Senior Care Community,PSSA - The Mount,4831 35th Ave SW,98126.0,1.0,SOUTHWEST,47.55837,-122.37751,1922,5,1.0,371257,74944,0.0,47.0,161.8,161.9,251.4,251.5,47947440,47970628,0,11550837,3385356,363966,36396600,1980.81,5.335
85,2017,NonResidential,Senior Care Community,Foss Home and Village,13023 Greenwood Ave. N,98133.0,5.0,NORTHWEST,47.72426,-122.35599,1970,2,1.0,93397,0,0.0,1.0,185.8,181.8,322.1,316.5,17354576,16977500,0,5676673,1663737,116779,11677903,643.7,6.892
86,2017,NonResidential,Hotel,SCCA - ALLIANCE HOUSE,207 Pontius Ave N,98109.0,7.0,LAKE UNION,47.61988,-122.33211,2008,6,1.0,84103,20732,0.0,63.0,69.4,69.4,180.2,180.2,4397191,4397576,0,3255417,954108,11417,1141774,74.11,0.881
87,2017,SPS-District K-12,K-12 School,Arbor Heights Elementary,3701 S.W. 104th St.,98146.0,1.0,SOUTHWEST,47.5097,-122.37759,1948,2,1.0,53352,0,0.0,99.0,22.6,22.5,49.6,49.5,2030587,2020764,0,1114948,326772,9156,915637,53.24,0.998
89,2017,NonResidential,Medical Office,Polyclinic North && South,1200 Harvard Ave,98122.0,3.0,EAST,47.61244,-122.3214,1965,3,0.0,241014,121709,0.0,56.0,82.8,82.2,200.6,198.7,14823875,14707000,0,9735270,2853244,50886,5088603,310.53,1.288
95,2017,NonResidential,Hotel,Sorrento Hotel,900 Madison St.,98104.0,3.0,EAST,47.60898,-122.32693,1908,7,1.0,76631,0,0.0,74.0,98.7,98.1,172.5,170.5,7563180,7515292,0,2525522,740188,50376,5037658,278.0,3.628
96,2017,NonResidential,Mixed Use Property,Central Seattle,921 Terry Ave.,98104.0,3.0,EAST,47.60845,-122.32637,1983,6,1.0,99780,9341,0.0,,196.2,193.9,482.6,476.6,14841480,14668101,5212174,9629305,2822188,0,0,316.92,3.176
98,2017,NonResidential,Retail Store,400 Westlake Avenue N.,400 Westlake Ave N,98109.0,7.0,LAKE UNION,47.62237,-122.33805,1929,2,1.0,58320,0,0.0,9.0,14.9,14.3,24.4,23.8,926844,890371,0,262468,76925,6643,664376,36.37,0.624
100,2017,NonResidential,Large Office,City Place III - SEDO,551 Boren Ave. North,98109.0,7.0,LAKE UNION,47.62424,-122.33646,2010,5,1.0,316306,0,2.0182017201620153e+23,95.0,57.0,57.0,155.9,155.9,16381541,16384160,0,13206806,3870693,31747,3174733,223.25,0.706
102,2017,NonResidential,Hotel,Residence Inn Seattle - Lake Union,800 Fairview Ave. N,98109.0,3.0,LAKE UNION,47.62642,-122.33325,1990,7,1.0,282863,44766,0.0,46.0,81.3,80.5,178.1,177.4,19158784,18986238,0,10472824,3069409,86859,8685958,504.64,1.784
103,2017,Nonresidential COS,Other,Key Arena,334 1st Ave. N,98109.0,7.0,MAGNOLIA / QUEEN ANNE,47.62141,-122.35086,1962,1,1.0,389000,0,0.0,,72.1,71.6,164.2,163.5,26547420,26365384,7990000,15044894,4409406,8855,885523,534.03,1.373
104,2017,Nonresidential COS,Other,Bagley Wright Theatre,151 Mercer St.,98109.0,7.0,MAGNOLIA / QUEEN ANNE,47.62208,-122.35398,1962,1,1.0,91213,0,0.0,,91.8,91.6,227.0,226.8,5967398,5956533,1841070,3930967,1152100,0,0,114.14,1.251
106,2017,Nonresidential COS,Other,Armory,305 Harrison St.,98109.0,7.0,MAGNOLIA / QUEEN ANNE,47.62141,-122.35086,1938,5,1.0,396085,0,0.0,,104.8,103.7,168.5,167.3,29197694,28870044,16949830,6674862,1956290,0,0,928.69,2.345
107,2017,NonResidential,Large Office,City Place IV - SEDO,333 Boren Ave. N.,98109.0,7.0,LAKE UNION,47.62112,-122.33629,2010,12,1.0,571329,0,2.0182017201620153e+23,92.0,62.5,61.8,172.1,169.9,39074696,38648836,0,31822031,9326504,72526,7252659,516.84,0.905
110,2017,Nonresidential COS,Other,Exhibition Hall,225 Mercer St.,98109.0,7.0,MAGNOLIA / QUEEN ANNE,47.62395,-122.35077,1962,2,1.0,52000,0,0.0,,54.7,54.4,117.9,117.6,2844245,2829869,1186200,1422455,416897,0,0,68.94,1.326
111,2017,Nonresidential COS,Other,Mercer Arena,363 Mercer St.,98109.0,7.0,MAGNOLIA / QUEEN ANNE,47.62395,-122.35143,1928,1,1.0,60696,0,0.0,,2.6,2.6,8.1,8.1,277136,277136,0,277135,81223,0,0,1.15,0.019
112,2017,Nonresidential COS,Other,McCaw Hall,321 Mercer St.,98109.0,7.0,MAGNOLIA / QUEEN ANNE,47.62395,-122.35143,1928,2,1.0,262048,0,0.0,,76.2,74.3,181.6,179.2,22553604,21981486,6062000,13994465,4101543,5104,510475,407.27,1.554
113,2017,NonResidential,Small- and Mid-Sized Office,KCTS9,401 Mercer St,98109.0,7.0,MAGNOLIA / QUEEN ANNE,47.62391,-122.34837,1986,2,0.0,66240,2352,0.0,,79.5,79.5,249.6,249.6,4422798,4422798,0,4422797,1296247,0,0,18.3,0.276
114,2017,NonResidential,Large Office,Bill and Melinda Gates Foundation,500 5th Ave N,98109.0,7.0,MAGNOLIA / QUEEN ANNE,47.62419,-122.34443,2010,6,1.0,920598,303707,0.0,93.0,52.6,51.6,133.8,132.6,38695232,37935880,0,27659335,8106487,110358,11035894,700.55,0.761
115,2017,NonResidential,Small- and Mid-Sized Office,J.G. Scripps Building,221 1st Ave. W,98033.0,7.0,MAGNOLIA / QUEEN ANNE,47.62053,-122.35842,1970,4,1.0,76213,25930,0.0,71.0,71.9,70.3,191.3,189.6,3664215,3580430,0,2823175,827425,8410,841039,56.35,0.739
116,2017,NonResidential,Hotel,MEDITERRANEAN INN (ID#116),425 queen anne ave N.,98109.0,7.0,MAGNOLIA / QUEEN ANNE,47.62291,-122.35708,2002,6,1.0,96910,36934,0.0,48.0,101.8,100.4,202.5,198.2,6104526,6022328,0,2745387,804627,33591,3359138,189.76,1.958
117,2017,NonResidential,Hotel,UNIVERSITY INN,4140 ROOSEVELT WAY NE,98105.0,4.0,NORTHEAST,47.65772,-122.31756,1962,4,2.0,50017,0,0.0,58.0,109.6,108.4,204.1,200.3,5480266,5419661,0,2131461,624695,33488,3348803,186.67,3.732
118,2017,SPS-District K-12,K-12 School,Pathfinder K-8,1901 SW Genesee St.,98106.0,1.0,DELRIDGE,47.5636,-122.358,1999,3,1.0,74468,0,0.0,94.0,22.8,22.8,71.6,71.6,1717534,1718059,0,1717533,503380,0,0,7.11,0.095
119,2017,NonResidential,K-12 School,St. Joseph K-8 School,700 18th Ave. E.,98112.0,3.0,EAST,47.62548,-122.30828,1923,3,1.0,67743,0,0.0,15.0,51.7,50.1,103.3,101.6,3502572,3391377,0,1589835,465954,19127,1912736,108.16,1.597
120,2017,NonResidential,K-12 School,Holy Names Academy,728 21st Ave East,98112.0,3.0,EAST,47.62644,-122.30429,1908,6,1.0,194104,0,0.0,98.0,36.8,35.7,63.6,62.5,7351460,7148590,0,2390908,700735,49605,4960550,273.35,1.408
121,2017,NonResidential,Small- and Mid-Sized Office,2100 Building,2100 24th Ave S,98144.0,3.0,SOUTHEAST,47.58408,-122.30125,2003,3,1.0,99433,35752,0.0,63.0,78.2,77.4,245.5,243.0,4979052,4927985,0,4979051,1459276,0,0,20.6,0.207
122,2017,SPS-District K-12,K-12 School,John Muir Elementary,3301 S. Horton St.,98144.0,2.0,SOUTHEAST,47.57324,-122.29058,1991,2,1.0,60725,0,0.0,77.0,36.8,36.6,115.5,114.8,2233187,2220198,0,2233186,654509,0,0,9.24,0.152
125,2017,SPS-District K-12,K-12 School,Mercer International Middle,1600 Columbian Way S.,98108.0,2.0,GREATER DUWAMISH,47.56413,-122.31208,1957,1,1.0,130862,0,0.0,63.0,55.5,54.2,91.9,90.5,7730110,7548106,0,2241183,656853,54889,5488926,300.79,2.299
127,2017,SPS-District K-12,K-12 School,Orca K-8 School,5215 46th Ave. S.,98118.0,2.0,SOUTHEAST,47.55478,-122.27596,1989,3,1.0,59955,0,0.0,94.0,29.5,29.3,85.8,85.6,1767751,1758171,0,1572161,460774,1955,195589,16.89,0.282
130,2017,SPS-District K-12,K-12 School,McClure Middle,1915 1st Ave. W.,98119.0,7.0,MAGNOLIA / QUEEN ANNE,47.63683,-122.35896,1964,2,1.0,93218,0,0.0,89.0,32.9,31.9,66.8,65.8,3064196,2976964,0,1439460,421881,16247,1624735,92.24,0.99
131,2017,NonResidential,Other,Lakeview,1208 NE 64th st,98115.0,4.0,NORTHEAST,47.67524,-122.31534,1941,4,1.0,56521,0,0.0,,117.1,117.1,367.7,367.7,5737653,5737653,0,5737652,1681609,0,0,23.74,0.42
132,2017,NonResidential,Other,Roosevelt Square,6401 12th Avenue NE,98115.0,4.0,NORTHEAST,47.67559,-122.31769,1929,2,1.0,228385,100070,0.0,,28.2,27.6,48.8,47.8,3653232,3571587,0,1186793,347829,24664,2466439,135.9,0.595
136,2017,NonResidential,Hotel,Holiday Inn Express North Seattle Shoreline,14115 Aurora Ave N,98133.0,5.0,NORTHWEST,47.73141,-122.3458,2001,4,1.0,51390,0,0.0,91.0,69.5,69.1,131.1,129.7,3571819,3548590,0,1429972,419101,21418,2141847,119.67,2.329
137,2017,SPS-District K-12,K-12 School,Broadview-Thomson K-8,13052 Greenwood Ave. N.,98133.0,5.0,NORTHWEST,47.72463,-122.35315,1963,2,1.0,131013,0,0.0,94.0,32.7,31.0,63.3,61.3,4313222,4090444,0,1827258,535538,24859,2485964,139.59,1.065
138,2017,SPS-District K-12,K-12 School,Ingraham High,1819 N. 135th St.,98133.0,5.0,NORTHWEST,47.7257,-122.33684,1959,1,1.0,245587,0,0.0,95.0,50.6,48.5,84.2,81.7,12601269,12085780,0,3704373,1085689,88968,8896895,487.84,1.986
139,2017,NonResidential,Hotel,7066-Seattle-Northgate,13300 Stone Avenue N,98133.0,5.0,NORTHWEST,47.72551,-122.3423,2002,3,1.0,69138,0,0.0,80.0,47.8,47.2,104.0,102.0,3377110,3330187,0,1818606,533003,15585,1558503,90.3,1.306
140,2017,SPS-District K-12,K-12 School,B.F. Day Elementary,3921 Linden Ave. N.,98103.0,6.0,LAKE UNION,47.65464,-122.34912,1991,3,1.0,66588,0,0.0,81.0,33.5,33.0,105.2,103.5,2231671,2194265,0,2231671,654065,0,0,9.23,0.139
144,2017,NonResidential,Hotel,Alexis Hotel,1007 First Ave.,98104.0,7.0,DOWNTOWN,47.6048,-122.3368,1904,5,1.0,190980,0,0.0,99.0,32.6,32.6,81.6,81.6,6220623,6220623,0,4331480,1269484,18891,1889141,118.25,0.619
145,2017,Nonresidential COS,Other,Benaroya Hall,200 University Street,98111.0,7.0,DOWNTOWN,47.60804,-122.3367,1998,6,1.0,284100,0,0.0,,78.5,77.6,192.8,190.8,14894600,14728079,4690673,9676809,2836110,5271,527115,317.39,1.117
147,2017,Campus,Hospital,Swedish Ballard,5300 Tallman Ave NW,98107.0,6.0,BALLARD,47.66737,-122.37956,1954,5,4.0,285333,0,0.0,18.0,229.1,0.0,465.0,0.0,69350008,0,0,32490882,9522533,368591,36859118,2092.01,7.332
148,2017,SPS-District K-12,K-12 School,West Woodland Elementary,5601 4th Ave. N.W.,98107.0,6.0,Ballard,47.6706,-122.36225,1991,2,1.0,55513,0,0.0,96.0,26.2,26.2,82.3,82.3,1618890,1619592,0,1618890,474469,0,0,6.7,0.121
163,2017,Nonresidential COS,Other,Fire Station 10/FAC/EOC,105 5th Ave S,98104.0,2.0,DOWNTOWN,47.60102,-122.32873,2006,4,1.0,61156,0,0.0,,131.1,129.6,330.8,327.6,9434370,9327808,0,6652462,1949725,27819,2781906,175.27,2.866
167,2017,NonResidential,Other,Wing Luke Museum,719 South King Street,98104.0,2.0,DOWNTOWN,47.59809,-122.32283,1910,4,1.0,72820,13820,0.0,,40.1,39.5,90.1,88.6,2327732,2289895,0,1330494,389945,9972,997237,58.47,0.803
168,2017,NonResidential,Hotel,Hampton Inn Seattle Center,700 5th Ave N.,98109.0,7.0,MAGNOLIA / QUEEN ANNE,47.62614,-122.3467,1996,4,1.0,162222,14200,0.0,80.0,70.4,69.7,150.6,148.5,8001963,7927950,0,4171709,1222658,38302,3830252,220.68,1.36
169,2017,SPS-District K-12,K-12 School,Franklin High,3013 S. Mt. Baker Blvd.,98144.0,2.0,SOUTHEAST,47.57589,-122.29365,1990,4,1.0,289588,0,0.0,96.0,29.7,28.9,76.1,75.2,8600206,8370211,0,6218969,1822675,23812,2381235,152.2,0.526
170,2017,NonResidential,University,SCCC FINE ARTS BUILDING,801 E PINE ST,98122.0,3.0,EAST,47.61495,-122.32177,1915,3,1.0,64820,0,0.0,,62.5,60.3,136.6,134.2,4054425,3908019,0,2200265,644860,18541,1854160,107.58,1.66
172,2017,Campus,University,SSCC MAIN CAMPUS,6000 16th Ave SW,98106.0,1.0,DELRIDGE,47.547,-122.35307,1970,2,27.0,529343,0,0.0,,74.3,73.2,173.0,171.8,39335420,38726292,0,24057585,7050875,152778,15277831,910.93,1.721
173,2017,NonResidential,Small- and Mid-Sized Office,Seattle Children's Hospital 70th/Sand Point Way Administrative Offices,6901Sand Point Way NE,98115.0,4.0,NORTHEAST,47.67836,-122.26442,2002,2,1.0,96300,0,0.0,,179.7,178.8,494.6,493.3,17476230,17382840,0,14234939,4172022,32412,3241288,231.04,2.399
174,2017,Nonresidential COS,Other,CSC Vehicle Maintenance (E),805 S Charles St,98134.0,2.0,GREATER DUWAMISH,47.59545,-122.32146,1950,1,1.0,67356,0,0.0,,103.4,99.9,176.1,172.5,7010479,6773748,0,2189532,641715,48209,4820946,265.1,3.936
175,2017,SPS-District K-12,K-12 School,Garfield High,400 23rd Ave.,98122.0,3.0,CENTRAL,47.60598,-122.30156,2008,3,1.0,254523,0,0.0,75.0,54.3,53.1,118.1,116.9,14018362,13703880,0,7547851,2212148,64705,6470509,374.88,1.473
176,2017,SPS-District K-12,K-12 School,Emerson Elementary,9709 60th Ave. S.,98118.0,2.0,SOUTHEAST,47.51482,-122.25864,2001,3,1.0,78804,0,0.0,92.0,35.4,34.6,82.2,81.4,2786048,2730437,0,1698710,497863,10873,1087337,64.78,0.822
177,2017,SPS-District K-12,K-12 School,Madrona K-8,1121 33rd Ave.,98122.0,3.0,CENTRAL,47.61224,-122.29087,2002,3,1.0,66994,0,0.0,89.0,38.4,37.5,99.2,98.3,2614529,2555028,0,1918441,562263,6960,696087,44.91,0.67
178,2017,SPS-District K-12,K-12 School,Van Asselt Elementary,8311 Beacon Ave S,98118.0,2.0,GREATER DUWAMISH,47.52915,-122.28904,2000,3,1.0,98357,0,0.0,90.0,38.6,37.6,82.1,81.0,3798545,3696395,0,1954754,572905,18437,1843790,106.01,1.078
179,2017,NonResidential,Small- and Mid-Sized Office,Seattle's Union Gospel Mission - Admin,3800 S Othello St,98118.0,2.0,GREATER DUWAMISH,47.53827,-122.28406,1958,1,1.0,54765,0,0.0,,93.2,91.0,255.1,250.2,4733395,4617186,0,3818572,1119159,9148,914821,64.38,1.176
180,2017,NonResidential,Other,Hope Place,3802 S Othello St,98118.0,2.0,GREATER DUWAMISH,47.53722,-122.284,2009,5,1.0,89821,0,0.0,,28.4,27.5,31.8,30.7,2529056,2444487,0,83812,24563,24452,2445243,130.21,1.45
182,2017,NonResidential,University,Otto Miller Hall,3469 3rd Ave. W,98119.0,7.0,MAGNOLIA / QUEEN ANNE,47.65147,-122.36122,1980,2,1.0,52611,0,0.0,,84.7,82.8,190.1,188.1,4456880,4356064,0,2545372,746006,19115,1911507,112.05,2.13
183,2017,Multifamily LR (1-4),Residence Hall,Emerson Hall,500 W. Emerson,98119.0,7.0,MAGNOLIA / QUEEN ANNE,47.65068,-122.36331,2001,4,1.0,139600,37500,0.0,89.0,36.7,36.6,75.1,74.8,4968569,4956664,0,2376104,696396,25924,2592465,147.52,1.057
185,2017,SPS-District K-12,K-12 School,Nathan Hale High,17050 30th Ave. N.E.,98125.0,5.0,NORTH,47.70763,-122.29453,2011,2,1.0,236758,0,2016.0,91.0,39.0,38.1,83.5,82.5,9442413,9214896,0,4927190,1444077,45152,4515221,260.19,1.099
187,2017,NonResidential,Other,Youth Services Center,1211 E Alder Street,98122.0,3.0,CENTRAL,47.60462,-122.31549,1971,6,3.0,250981,0,0.0,,65.2,63.8,148.2,146.6,14068176,13786255,5569413,7833904,2295986,6648,664856,363.8,1.449
189,2017,SPS-District K-12,K-12 School,Greenwood Elementary,144 N.W. 80th St.,98117.0,6.0,NORTHWEST,47.68725,-122.35996,2002,3,1.0,62526,0,0.0,96.0,35.1,34.4,73.2,72.5,2191821,2148844,0,1088996,319166,11028,1102825,63.08,1.009
190,2017,NonResidential,Small- and Mid-Sized Office,Emerald Services,7343 E Marginal Way S,98108.0,2.0,GREATER DUWAMISH,47.536,-122.31768,2007,3,1.0,64015,0,0.0,42.0,52.5,51.4,134.1,132.9,2836478,2774755,0,2041103,598213,7953,795374,50.69,0.792
194,2017,Campus,Retail Store,Northgate Mall,401 Northgate Way,98125.0,5.0,NORTH,47.70759,-122.3255,1951,1,1.0,530039,0,0.0,98.0,57.9,56.6,123.6,120.7,30711020,30023472,0,15911817,4663487,147992,14799200,851.81,1.607
195,2017,NonResidential,Other,Seattle-Northgate,10631 8th Ave NE,98125.0,5.0,NORTH,47.7066,-122.321,1964,3,1.0,54224,0,0.0,,133.3,133.3,281.8,281.8,6265807,6267917,0,3190494,935080,30753,3075312,176.53,3.256
197,2017,NonResidential,Retail Store,Nordstrom #002 Northgate,401 NE Northgate Way,98125.0,5.0,NORTH,47.70619,-122.32586,1965,4,1.0,124342,0,0.0,78.0,70.9,70.6,219.8,219.2,8652292,8616892,0,8485606,2486989,1666,166684,43.96,0.354
198,2017,Campus,Hospital,Seattle Children's Hospital Main Campus,4800 Sand Point Way NE,98105.0,4.0,NORTHEAST,47.66231,-122.28146,1953,10,10.0,879000,0,0.0,13.0,287.5,283.8,560.8,554.2,258019328,254681152,0,111167675,32581382,1468516,146851637,8259.2,9.396
200,2017,NonResidential,Other,Verity Credit Union,11027 Meridian N #102,98133.0,5.0,NORTHWEST,47.70956,-122.3345,1996,3,1.0,55442,0,0.0,68.0,96.9,94.2,207.5,204.6,3613813,3511543,0,1886055,552771,17277,1727757,99.56,1.796
205,2017,SPS-District K-12,K-12 School,Ballard High,1418 N.W. 65th St.,98117.0,6.0,BALLARD,47.67661,-122.37489,1999,2,1.0,242795,0,0.0,87.0,37.5,37.1,107.0,106.6,9096033,9005074,0,7858509,2303197,12375,1237522,98.24,0.405
209,2017,NonResidential,Self-Storage Facility,Madison Self Storage,1111 E. Madison,98122.0,3.0,EAST,47.61233,-122.3171,1910,5,1.0,84870,0,0.0,,14.6,14.5,30.3,30.1,1251958,1238536,0,609647,178677,6423,642310,36.64,0.432
211,2017,Campus,University,NSCC MAIN CAMPUS,9600 COLLEGE WAY N,98103.0,5.0,NORTHWEST,47.69936,-122.33401,1970,2,11.0,694072,111625,0.0,,61.2,60.7,174.5,172.9,39987776,39619168,0,34458357,10099167,55294,5529414,436.23,0.629
212,2017,SPS-District K-12,K-12 School,Aki Kurose Middle,3928 S. Graham St.,98118.0,2.0,SOUTHEAST,47.54632,-122.28198,1952,2,1.0,173185,0,0.0,84.0,45.1,43.4,66.9,65.1,7807653,7512366,0,1622525,475535,61851,6185126,335.2,1.936
214,2017,SPS-District K-12,K-12 School,Boren Building,5950 Delridge Way S.W.,98106.0,1.0,DELRIDGE,47.54862,-122.36214,1963,1,1.0,145341,0,0.0,88.0,44.3,43.6,75.5,74.8,5725513,5629200,0,1793670,525694,39318,3931842,216.24,1.488
215,2017,NonResidential,Warehouse,Rainier Bottling Plant,5628 Airport Way South,98108.0,2.0,GREATER DUWAMISH,47.55152,-122.31869,1904,4,1.0,114297,0,0.0,59.0,19.4,18.8,38.4,37.4,2217277,2154016,0,983343,288201,12339,1233933,69.6,0.609
216,2017,SPS-District K-12,K-12 School,Rainier Beach High,8815 Seward Park Ave S.,98118.0,2.0,SOUTHEAST,47.52407,-122.26586,1960,2,1.0,184125,0,0.0,84.0,53.5,52.2,88.8,87.5,9800618,9570056,0,2866498,840122,69341,6934118,380.13,2.065
217,2017,SPS-District K-12,K-12 School,Whitman Middle,9201 15th Ave. NW.,98117.0,6.0,BALLARD,47.69675,-122.3776,1959,1,1.0,160270,0,0.0,89.0,41.1,40.6,66.6,66.1,6524110,6438029,0,1778956,521382,47451,4745153,259.37,1.618
220,2017,NonResidential,Warehouse,8109,4786 First Ave S,98134.0,2.0,GREATER DUWAMISH,47.55901,-122.33328,1937,1,1.0,234144,0,0.0,87.0,32.0,31.2,45.7,44.8,7500874,7306024,0,1349674,395566,61512,6151200,332.27,1.419
223,2017,NonResidential,Retail Store,Westwood Village - Building A,2600 SW Barton St,98126.0,1.0,DELRIDGE,47.52254,-122.36627,1966,1,1.0,64984,0,0.0,74.0,47.3,46.1,132.6,130.5,3094629,3016587,0,2597620,761319,4970,497008,37.14,0.572
224,2017,NonResidential,Retail Store,Westwood Village - Building B,2600 SW Barton St,98126.0,1.0,DELRIDGE,47.52254,-122.36627,1965,1,1.0,67745,0,0.0,40.0,138.0,137.9,225.9,225.6,9352816,9349917,0,2626481,769777,67263,6726334,368.1,5.434
225,2017,SPS-District K-12,K-12 School,Denny/Sealth Campus,2601 SW Kenyon / 2600 SW Thistle,98126.0,1.0,DELRIDGE,47.52915,-122.36511,2010,2,1.0,367884,0,2016.0,95.0,34.9,34.5,80.9,80.5,12822132,12687513,0,7793294,2284084,50288,5028837,299.32,0.814
226,2017,SPS-District K-12,K-12 School,Roxhill Elementary,9430 30th Ave. S.W.,98126.0,1.0,DELRIDGE,47.51778,-122.37074,1958,1,1.0,46797,0,0.0,74.0,53.9,53.4,93.6,93.1,2520889,2499488,0,828414,242794,16924,1692475,93.31,1.994
227,2017,SPS-District K-12,K-12 School,Washington Middle,2101 S. Jackson,98144.0,3.0,CENTRAL,47.59796,-122.30415,1963,3,1.0,136188,0,0.0,94.0,39.3,38.0,65.0,63.7,5385384,5212222,0,1557543,456489,38278,3827841,209.74,1.54
228,2017,NonResidential,Other,Webster Building,3014 NW 67th St.,98117.0,6.0,BALLARD,47.67767,-122.39631,1973,3,1.0,56000,0,0.0,,35.4,34.3,66.2,65.1,1982074,1921330,0,778367,228126,12037,1203707,67.15,1.199
229,2017,SPS-District K-12,K-12 School,Martin Luther King Jr. Elementary,6725 45th Ave S,98118.0,2.0,SOUTHEAST,47.54174,-122.27691,2004,2,1.0,67371,0,0.0,91.0,34.5,33.9,81.1,80.4,2326197,2282365,0,1444794,423445,8814,881402,52.79,0.784
230,2017,NonResidential,Self-Storage Facility,U-Haul Moving and Storage of West Seattle (701065),6343 35th Ave SW,98126.0,1.0,SOUTHWEST,47.54508,-122.37737,1969,2,1.0,52088,0,0.0,,27.0,26.6,50.9,50.2,1406600,1384492,0,563100,165035,8435,843499,47.13,0.905
231,2017,SPS-District K-12,K-12 School,Hamilton International Middle,1610 N. 41st St.,98103.0,4.0,LAKE UNION,47.65708,-122.33803,2010,3,1.0,127776,0,0.0,82.0,34.9,34.8,94.7,94.6,4458362,4441778,0,3549735,1040368,9086,908626,62.94,0.493
232,2017,NonResidential,Hotel,Silver Cloud Inn,1150 Fairview Ave N,98109.0,3.0,LAKE UNION,47.62972,-122.32906,1998,5,1.0,123920,30000,0.0,85.0,73.2,73.2,144.3,144.3,9070980,9072679,0,3998611,1171926,50723,5072367,285.94,2.307
233,2017,Nonresidential COS,Other,Armory Building,860 Terry Ave N,98109.0,3.0,LAKE UNION,47.62759,-122.33661,1900,1,1.0,50000,0,0.0,,181.6,180.0,375.5,370.4,7807559,7739639,0,3803265,1114673,40042,4004292,228.4,4.568
234,2017,Nonresidential COS,Warehouse,SCL Roy Street Warehouse,802 Roy St,98109.0,7.0,MAGNOLIA / QUEEN ANNE,47.62591,-122.34084,1926,2,1.0,50292,0,0.0,,6.5,0.0,20.3,0.0,348190,0,0,348190,102048,0,0,1.44,0.029
235,2017,NonResidential,Hotel,311jk-Seattle Downtown/Lake Union CY,925 Westlake Ave North,98109.0,7.0,MAGNOLIA / QUEEN ANNE,47.62782,-122.34045,1998,7,1.0,207656,54341,0.0,73.0,84.2,82.0,176.8,171.4,11927346,11616172,0,5985445,1754233,59419,5941899,340.34,1.639
237,2017,SPS-District K-12,K-12 School,Whittier Elementary,1320 NW 75th St.,98117.0,6.0,BALLARD,47.68359,-122.37308,1999,2,1.0,67235,0,0.0,92.0,37.7,37.0,88.9,88.1,2537124,2486469,0,1584473,464382,9526,952650,57.15,0.85
238,2017,Nonresidential COS,Small- and Mid-Sized Office,North Service Center,1300 N 97th ST,98103.0,5.0,NORTHWEST,47.70044,-122.34136,1957,2,1.0,91130,0,0.0,,100.0,99.2,256.9,254.8,9432721,9357136,0,6851100,2007942,25816,2581620,165.45,1.816
239,2017,SPS-District K-12,K-12 School,Gatewood Elementary,4320 SW Myrtle,98136.0,1.0,SOUTHWEST,47.54025,-122.3885,1991,3,1.0,58118,0,0.0,98.0,24.6,24.2,67.2,66.8,1454677,1429926,0,1167533,342184,2871,287144,20.08,0.346
241,2017,NonResidential,Hotel,Hotel Nexus,2140 N. Northgate Way,98133.0,5.0,NORTHWEST,47.70916,-122.33216,1968,4,1.0,64893,0,0.0,59.0,112.9,111.1,213.5,207.8,7323443,7207118,0,2949068,864322,43743,4374374,244.52,3.768
242,2017,SPS-District K-12,K-12 School,Olympic View Elementary,504 N.E. 95th St.,98115.0,5.0,NORTH,47.69823,-122.32126,1989,2,1.0,52792,0,0.0,97.0,25.4,25.3,79.8,79.5,1409767,1405008,0,1409767,413179,0,0,5.83,0.11
243,2017,SPS-District K-12,K-12 School,Van Asselt Building - Old,7201 Beacon Ave. S.,98108.0,2.0,GREATER DUWAMISH,47.53809,-122.29591,1925,1,1.0,70762,0,0.0,69.0,63.0,62.0,79.7,78.7,4360317,4290225,0,450599,132063,39097,3909717,209.51,2.961
245,2017,NonResidential,Other,CenturyLink,800 Occidental Ave. South,98134.0,2.0,GREATER DUWAMISH,47.59544,-122.33159,1999,6,1.0,1585960,327680,0.0,,43.4,42.1,117.2,114.7,68816432,66829032,0,54379715,15937783,144367,14436714,991.71,0.625
247,2017,Nonresidential COS,Distribution Center,SCL SSC Building A,3613 4th Ave S,98134.0,2.0,GREATER DUWAMISH,47.57199,-122.32811,1924,2,1.0,179161,0,0.0,,55.5,54.2,164.3,160.6,10031638,9790772,0,9165207,2686168,8664,866429,83.93,0.468
248,2017,Nonresidential COS,Warehouse,SCL SSC Building B,3613 4th Ave S,98134.0,2.0,GREATER DUWAMISH,47.57199,-122.32811,1965,2,1.0,50000,0,0.0,,65.2,63.4,204.6,199.1,4581942,4459359,0,4581941,1342890,0,0,18.96,0.379
249,2017,NonResidential,Other,Safeco Field,1250 First Avenue South,98134.0,2.0,GREATER DUWAMISH,47.59085,-122.33354,1999,3,1.0,1172127,0,0.0,,58.1,58.0,138.6,138.3,68088408,67978656,0,43546775,12762830,245416,24541628,1483.56,1.266
250,2017,NonResidential,Hotel,Silver Cloud Hotel - Stadium,1046 1st Ave S,98134.0,2.0,GREATER DUWAMISH,47.59269,-122.33372,2005,9,1.0,168449,14567,0.0,65.0,92.0,90.1,187.5,183.7,13270612,12995834,0,6268708,1837253,70019,7001903,397.81,2.362
257,2017,NonResidential,Warehouse,Harbor Island: Warehouse E - DNRP-SWD,3235 16TH AVE SW,98134.0,1.0,GREATER DUWAMISH,47.57507,-122.35747,1916,4,0.0,79600,0,0.0,59.0,23.1,23.1,72.5,72.5,1836783,1836783,0,1836783,538330,0,0,7.6,0.095
260,2017,SPS-District K-12,K-12 School,Lincoln Building,4400 Interlake Ave N,98103.0,4.0,LAKE UNION,47.65996,-122.33962,1997,4,1.0,241066,0,0.0,95.0,22.4,22.2,44.9,44.6,5407536,5350658,0,2458615,720579,29489,2948919,166.79,0.692
261,2017,Campus,Large Office,South Park,1420 S Trenton,98108.0,1.0,GREATER DUWAMISH,47.52429,-122.31234,1980,2,14.0,334368,31874,0.0,,151.2,151.2,430.4,430.4,50567340,50572632,0,43454832,12735883,71125,7112500,557.52,1.667
263,2017,NonResidential,Other,Building 1,316 NE Thornton Place,98125.0,1.0,NORTH,47.70281,-122.32532,2008,6,1.0,394712,335109,0.0,,103.1,101.3,267.1,262.7,9122362,8964394,0,6720839,1969765,24015,2401522,155.35,0.394
264,2017,NonResidential,Mixed Use Property,TriBeCa,516 1st Ave W,98119.0,7.0,MAGNOLIA / QUEEN ANNE,47.6239,-122.35756,2002,4,1.0,110785,39179,0.0,,98.0,97.2,299.4,297.3,10853629,10771248,0,10415025,3052469,4386,438601,66.38,0.599
265,2017,Multifamily MR (5-9),Mid-Rise Multifamily,YWCA Opportunity Place,2024 3rd Avenue,98121.0,7.0,DOWNTOWN,47.61316,-122.34153,2003,7,1.0,116947,0,0.0,,86.2,85.4,188.0,187.1,10839175,10730137,0,5859954,1717454,49792,4979219,288.69,2.469
267,2017,NonResidential,Hotel,Grand Hyatt Seattle,721 Pine St,98101.0,7.0,DOWNTOWN,47.61275,-122.3333,1999,0,1.0,934292,0,0.0,,119.1,118.5,273.1,271.2,65718336,65388896,0,39067611,11450062,266507,26650721,1577.05,1.688
268,2017,Campus,Hospital,Swedish Cherry Hill,500 17th Ave,98122.0,3.0,CENTRAL,47.60705,-122.30966,1990,5,6.0,597519,0,0.0,36.0,244.1,242.0,450.5,447.9,146845936,145564464,0,55912536,16387027,909333,90933393,5060.79,8.47
273,2017,SPS-District K-12,K-12 School,Highland Park Elementary,1012 S.W. Trenton St.,98106.0,1.0,DELRIDGE,47.52518,-122.34828,1999,1,1.0,71714,0,0.0,90.0,35.8,35.4,94.3,93.8,2570735,2542239,0,1942629,569352,6281,628106,41.4,0.577
274,2017,NonResidential,Self-Storage Facility,27020-Seattle / Stone Way North,3600 Stone Way North,98103.0,4.0,LAKE UNION,47.65097,-122.34227,1991,3,1.0,75397,8161,0.0,88.0,9.2,9.1,25.1,24.7,621088,611638,0,495688,145278,1254,125400,8.71,0.116
276,2017,Campus,Hospital,Harborview Medical Center,325 9th Ave.,98104.0,3.0,EAST,47.60399,-122.32377,2000,8,9.0,1926841,0,0.0,67.0,165.8,164.2,379.2,374.9,285952544,283066464,123766808,160134686,46932792,20510,2051028,7351.0,3.815
278,2017,NonResidential,Senior Care Community,ID Village Square 1,802 S. Dearborn St.,98104.0,2.0,DOWNTOWN,47.59626,-122.3218,1999,5,1.0,102796,12611,0.0,,108.0,108.0,266.2,266.2,11103403,11103403,0,7515684,2202721,35877,3587717,221.64,2.156
279,2017,SPS-District K-12,K-12 School,West Seattle High,3000 California Ave SW,98116.0,1.0,SOUTHWEST,47.57678,-122.38459,2002,2,1.0,208981,0,0.0,88.0,40.4,39.5,91.9,90.8,8450688,8246117,0,4941129,1448162,35095,3509557,206.83,0.99
280,2017,Multifamily MR (5-9),Mid-Rise Multifamily,Wintonia,1431 Minor Ave,98101.0,7.0,EAST,47.6136,-122.32785,1909,6,1.0,51976,0,0.0,30.0,89.6,88.9,171.2,170.5,4513513,4476967,0,1857157,544301,26563,2656354,148.76,2.862
281,2017,NonResidential,K-12 School,University HTS Grade School,5031 University Way NE,98105.0,1.0,NORTHEAST,47.66568,-122.31368,1928,2,1.0,55653,0,0.0,93.0,30.7,29.3,32.4,31.0,1704375,1626029,0,5300,1553,16990,1699074,90.26,1.622
282,2017,NonResidential,Hotel,Hotel Deca,4507 Brooklyn Ave NE,98105.0,4.0,NORTHEAST,47.66151,-122.31457,1931,16,1.0,106860,0,0.0,58.0,110.0,108.7,180.4,178.7,11757918,11610345,0,3316767,972089,84411,8441150,462.03,4.324
284,2017,NonResidential,Worship Facility,University Congregational United Church of Christ,4505 16TH AVE NE,98105.0,4.0,NORTHEAST,47.66182,-122.31113,1952,2,1.0,56772,0,0.0,36.0,51.6,50.2,98.5,97.0,2930340,2847930,0,1204521,353025,17258,1725818,96.64,1.702
285,2017,NonResidential,Worship Facility,University Presbyterian Church,4540 15th Avenue NE,98105.0,4.0,NORTHEAST,47.6626,-122.31164,1952,3,1.0,103000,0,0.0,43.0,54.4,52.7,103.8,102.0,5598684,5428972,0,2301185,674438,32974,3297498,184.65,1.793
286,2017,SPS-District K-12,K-12 School,Roosevelt High,1410 N.E. 66th St.,98115.0,4.0,NORTHEAST,47.67723,-122.31281,2006,3,1.0,269297,0,0.0,92.0,37.4,36.7,88.0,87.3,10274055,10077037,0,6406478,1877631,38675,3867576,231.91,0.861
287,2017,SPS-District K-12,K-12 School,Bryant Elementary,3311 N.E. 60th,98115.0,4.0,NORTHEAST,47.67184,-122.29221,2001,3,1.0,75174,0,0.0,92.0,39.6,38.7,84.0,83.0,2978605,2909350,0,1523330,446462,14552,1455275,83.59,1.112
289,2017,SPS-District K-12,K-12 School,Frantz Coe Elementary,2424 7th Ave W.,98119.0,7.0,MAGNOLIA / QUEEN ANNE,47.64052,-122.3656,2003,3,1.0,75214,0,0.0,85.0,37.7,37.0,88.0,87.2,2835088,2780369,0,1741097,510286,10939,1093990,65.3,0.868
290,2017,SPS-District K-12,K-12 School,Madison Middle,3429 45th Ave. S.W.,98116.0,1.0,SOUTHWEST,47.57298,-122.39028,2005,3,1.0,134918,0,0.0,96.0,29.2,28.8,74.9,74.5,3934628,3884541,0,2856743,837263,10778,1077883,69.07,0.512
291,2017,SPS-District K-12,K-12 School,Thurgood Marshall Elementary,2401 S. Irving St.,98144.0,3.0,CENTRAL,47.59096,-122.29985,1991,2,1.0,64414,0,0.0,76.0,36.3,36.0,113.9,113.0,2369305,2350320,0,2369304,694403,0,0,9.8,0.152
292,2017,SPS-District K-12,K-12 School,John Marshall Building,520 N.E. Ravenna Blvd.,98115.0,6.0,NORTHWEST,47.67725,-122.32232,1927,3,1.0,92437,0,0.0,81.0,59.3,58.0,80.1,78.8,5481861,5363015,0,790002,231536,46918,4691859,252.45,2.731
293,2017,NonResidential,Other,ACT Theatre,700 Union St,98101.0,7.0,DOWNTOWN,47.61103,-122.33238,1914,7,1.0,128766,0,0.0,,41.3,41.3,118.4,118.4,5314311,5314955,0,4623492,1355068,6908,690817,55.82,0.433
294,2017,NonResidential,Residence Hall,Women's Residence at Seneca,1118 5th Avenue,98101.0,7.0,DOWNTOWN,47.6079,-122.33266,1913,9,1.0,107572,0,0.0,83.0,55.7,55.5,105.6,105.4,5662477,5645117,3635556,2026920,594056,0,0,201.66,1.875
295,2017,NonResidential,Other,1122 3rd Ave,1122 3rd Ave,98101.0,7.0,DOWNTOWN,47.60699,-122.33481,1955,15,1.0,230880,0,0.0,,300.3,300.2,942.9,942.5,60957996,60930864,0,60957986,17865764,0,0,252.19,1.092
296,2017,Multifamily LR (1-4),Low-Rise Multifamily,Cooper School Artist's Lofts,4408 Delridge Way SW,98106.0,1.0,DELRIDGE,47.56379,-122.36301,1917,4,1.0,56617,0,0.0,21.0,37.8,36.8,87.4,85.3,2138344,2084011,0,1293748,379176,8445,844596,50.21,0.887
297,2017,Multifamily MR (5-9),Mid-Rise Multifamily,LAKE CITY COURT,12730 33RD AVE NE,98125.0,5.0,NORTH,47.72232,-122.29181,2009,6,1.0,56745,0,0.0,50.0,62.7,61.8,146.4,144.3,2740181,2697865,0,1681971,492957,10582,1058210,63.16,1.113
299,2017,Multifamily LR (1-4),Low-Rise Multifamily,Othello Building,3815 S Othello St,98118.0,2.0,GREATER DUWAMISH,47.53685,-122.28406,2003,4,1.0,67920,0,0.0,,60.9,60.3,188.6,186.8,2678470,2652506,0,2620473,768016,579,57996,13.92,0.205
300,2017,SPS-District K-12,K-12 School,Cleveland STEM High,5511 15th Ave. S.,98108.0,2.0,GREATER DUWAMISH,47.55237,-122.31391,2007,3,1.0,204961,0,0.0,96.0,42.7,42.0,90.1,89.3,8751308,8599579,0,4438971,1300988,43123,4312335,247.39,1.207
313,2017,NonResidential,Medical Office,BMR-201 Elliott Avenue LLC,201 Elliott Avenue West,98119.0,7.0,MAGNOLIA / QUEEN ANNE,47.61972,-122.36033,1927,5,1.0,190000,39000,0.0,1.0,178.2,177.2,449.2,448.2,27902224,27744876,0,19630283,5753307,82719,8271937,520.54,2.74
314,2017,NonResidential,Hotel,Edgewater Seattle,2411 Alaskan Way,98121.0,7.0,DOWNTOWN,47.6124,-122.35075,1961,4,1.0,122309,0,0.0,14.0,192.7,192.3,309.2,307.8,23567584,23514882,0,6254433,1833069,173131,17313148,945.38,7.729
315,2017,Campus,Other,P66 Bell Harbor International Conference Center & Cruise Terminal.,2225 Alaskan Way,98125.0,7.0,DOWNTOWN,47.61137,-122.34947,1995,3,4.0,217088,0,0.0,,120.5,120.5,269.3,269.3,26153150,26157350,0,14829229,4346198,113239,11323918,662.76,3.053
316,2017,NonResidential,Hotel,MI Seattle Waterfront - 337V2,2100 Alaskan Way,98121.0,7.0,DOWNTOWN,47.61069,-122.34653,2003,8,1.0,254273,38800,0.0,35.0,98.4,97.5,202.8,200.3,27247592,26995946,0,13187590,3865061,140600,14060000,801.29,3.151
317,2017,Nonresidential COS,Other,Seattle Aquarium,1421 Alaskan Way,98101.0,1.0,DOWNTOWN,47.60729,-122.34211,1980,2,1.0,53365,0,0.0,,235.6,234.4,608.2,606.9,16353612,16265111,0,11979282,3510927,43743,4374326,281.88,5.282
318,2017,NonResidential,Mixed Use Property,Pier 54,1001 Alaskan Way,98104.0,7.0,DOWNTOWN,47.6041,-122.33958,1900,1,1.0,62900,0,0.0,,160.6,160.6,275.6,275.7,10557387,10560903,0,3366115,986552,71912,7191271,395.85,6.293
319,2017,NonResidential,Small- and Mid-Sized Office,Daily Journal Building,83 Columbia St.,98104.0,7.0,DOWNTOWN,47.60271,-122.33557,1914,4,1.0,56500,0,0.0,97.0,41.5,40.4,92.8,91.5,1658119,1614834,770718,887401,260082,0,0,44.64,0.79
320,2017,NonResidential,Warehouse,(ID320) BMW SEATTLE - SERVICE CENTER,900 MAYNARD AVE S,98134.0,2.0,GREATER DUWAMISH,47.59486,-122.32455,2008,4,1.0,203504,159372,0.0,75.0,19.2,19.0,60.1,59.6,3897159,3861659,0,3897158,1142191,0,0,16.12,0.079
322,2017,NonResidential,Large Office,Cox Media Group Seattle KIRO TV,2801 3rd Ave,98121.0,7.0,DOWNTOWN,47.61757,-122.35122,1968,3,1.0,100734,26731,0.0,39.0,100.5,99.4,315.5,312.1,10122709,10012128,0,10122707,2966796,0,0,41.88,0.416
323,2017,NonResidential,Small- and Mid-Sized Office,200 Cedar Street Building,200 Cedar Street,98121.0,7.0,DOWNTOWN,47.61703,-122.35012,1981,4,1.0,77662,18504,0.0,61.0,80.1,77.5,223.8,217.3,4972912,4813714,0,4151945,1216865,8209,820966,60.78,0.783
324,2017,NonResidential,Large Office,Fourth and Battery,2401 Fourth Avenue,98121.0,7.0,DOWNTOWN,47.61619,-122.34599,1978,12,1.0,234000,21790,0.0,42.0,87.9,87.5,270.2,269.8,18348744,18269334,0,17762921,5206014,5858,585819,104.6,0.447
325,2017,NonResidential,Other,WESTLAKE MALL RETAIL PORTION,400 Pine St,98101.0,7.0,DOWNTOWN,47.61192,-122.33717,1989,4,1.0,111077,0,0.0,,117.8,117.1,312.1,309.7,13088010,13005117,0,10011172,2934106,30768,3076836,204.83,1.844
326,2017,NonResidential,Large Office,Westlake Tower,1601 5th Avenue,98101.0,7.0,DOWNTOWN,47.61192,-122.33717,1989,25,1.0,516342,127192,20182012.0,79.0,63.6,63.6,199.6,199.6,24440992,24440992,0,24440988,7163244,0,0,101.12,0.196
327,2017,NonResidential,Retail Store,Nordstrom #001 Downtown Seattle,500 Pine Street,98101.0,7.0,DOWNTOWN,47.61229,-122.33629,1925,10,1.0,693450,0,0.0,94.0,55.8,54.5,167.1,163.0,38686632,37797356,83081,35986558,10547057,26169,2616990,292.29,0.421
328,2017,NonResidential,Large Office,1600 Seventh,1600 7th Ave,98191.0,7.0,DOWNTOWN,47.61316,-122.3343,1976,33,1.0,791396,0,20172015.0,90.0,68.0,67.2,211.7,209.2,42185140,41698228,0,41665692,12211516,5194,519439,199.96,0.253
329,2017,NonResidential,Large Office,1700 Seventh Ave,1700 Seventh,98101.0,7.0,DOWNTOWN,47.61399,-122.33523,2000,23,1.0,747747,205076,2.0172016201520142e+39,92.0,54.8,54.4,161.0,159.8,30229138,30027230,0,27310446,8004234,29186,2918686,268.0,0.358
330,2017,NonResidential,Small- and Mid-Sized Office,Lloyd Building,603 Stewart Street,98101.0,7.0,DOWNTOWN,47.61356,-122.33665,1926,10,1.0,63409,7757,0.0,91.0,67.8,67.0,133.0,132.0,3488812,3446921,2123093,1365718,400269,0,0,118.52,1.869
331,2017,NonResidential,Large Office,The Tower Building,1809 7th Ave,98101.0,7.0,DOWNTOWN,47.61375,-122.33566,1930,17,1.0,204790,30000,201020092007.0,91.0,48.1,46.8,129.5,128.1,8360560,8138434,0,6566011,1924388,17945,1794547,122.47,0.598
332,2017,NonResidential,Small- and Mid-Sized Office,Times Square Building,414 Olive Street,98101.0,7.0,DOWNTOWN,47.61256,-122.33808,1916,5,1.0,73399,0,0.0,63.0,61.4,59.5,192.8,187.0,3777452,3663755,0,3777451,1107107,0,0,15.63,0.213
333,2017,NonResidential,Large Office,Plaza 600,600 Stewart Street,98101.0,7.0,DOWNTOWN,47.61402,-122.33712,1969,20,1.0,265851,32334,2018201720102007.0,90.0,69.5,68.2,151.0,148.2,15744656,15448670,7866379,7878275,2308990,0,0,450.78,1.696
334,2017,NonResidential,Large Office,West 8th,2001 - 8th Avenue,98121.0,7.0,DOWNTOWN,47.61578,-122.33726,2009,25,1.0,758043,228668,2018201720162015.0,98.0,39.9,39.9,122.6,122.6,23278062,23277718,0,22476916,6587607,8011,801142,135.54,0.179
335,2017,NonResidential,Large Office,Denny Building,2200 Sixth Avenue,98121.0,7.0,DOWNTOWN,47.61641,-122.34112,1968,12,1.0,206000,0,0.0,92.0,57.0,54.9,141.6,137.3,9176736,8843904,3109067,6067667,1778331,0,0,190.38,0.924
336,2017,NonResidential,Large Office,1918 Eighth Avenue,1918 Eighth Avenue,98101.0,7.0,DOWNTOWN,47.61555,-122.33582,2009,36,1.0,824887,154972,20172015.0,92.0,55.8,54.6,175.0,171.5,41495232,40632836,0,41432059,12143042,0,0,171.41,0.208
337,2017,NonResidential,Large Office,1800 Ninth,1800 9th Avenue,98101.0,7.0,DOWNTOWN,47.61516,-122.33303,1990,16,1.0,480840,141600,20182017.0,94.0,54.1,53.1,169.2,166.0,18362028,18020342,0,18235550,5344534,1264,126476,82.16,0.171
338,2017,NonResidential,Other,Jack R. McDonald Building,1900 9th Ave.,98101.0,7.0,DOWNTOWN,47.61598,-122.33448,2004,11,1.0,299070,68432,0.0,,268.7,266.3,543.4,540.7,67186504,66586948,0,31247607,9158150,359388,35938893,2037.99,6.814
410,2017,NonResidential,Hotel,Motif Seattle,1414 4th Ave,98101.0,7.0,DOWNTOWN,47.60996,-122.33572,1973,19,0.0,332067,59280,0.0,29.0,90.0,90.0,193.9,193.9,29874376,29874376,11333371,14970306,4387546,35706,3570697,854.07,2.572
339,2017,NonResidential,Small- and Mid-Sized Office,Broderick Building,615 2nd Avenue,98104.0,7.0,DOWNTOWN,47.60266,-122.33332,1900,7,1.0,89550,0,0.0,81.0,53.3,52.1,157.9,154.7,4357023,4259766,393122,3963900,1161752,0,0,37.3,0.417
340,2017,NonResidential,Small- and Mid-Sized Office,The Pioneer Building,600 First Ave,98104.0,7.0,DOWNTOWN,47.60219,-122.33347,1900,6,1.0,89355,0,0.0,69.0,46.1,46.1,143.8,143.8,4122530,4121564,0,4076109,1194639,464,46420,19.33,0.216
341,2017,NonResidential,Large Office,Dexter Horton Building,710 2nd Avenue,98104.0,7.0,DOWNTOWN,47.6036,-122.33288,1922,15,1.0,388934,0,2.018201520142012e+23,97.0,34.2,33.8,100.9,100.4,13320737,13164025,1341682,11979052,3510859,0,0,120.88,0.311
342,2017,NonResidential,Large Office,Seattle Exchange Building,821 2nd ave,98104.0,7.0,DOWNTOWN,47.60403,-122.33497,1929,22,1.0,384302,0,201220092008.0,97.0,33.6,32.6,105.6,102.4,11800704,11444584,0,11800702,3458588,0,0,48.82,0.127
343,2017,NonResidential,Large Office,Norton Building,801 2nd Ave Suite 1300,98104.0,7.0,DOWNTOWN,47.6037,-122.33447,1958,17,1.0,378525,84600,0.0,72.0,104.5,102.3,234.4,228.7,25643976,25117432,11859103,13784871,4040114,0,0,687.47,1.816
345,2017,NonResidential,Large Office,999 Third Avenue,"999 3rd Avenue, Suite 1550",98104.0,7.0,DOWNTOWN,47.60505,-122.33427,1983,47,1.0,1323055,0,2018.0,94.0,43.1,42.1,135.0,132.0,46911160,45864152,0,46759798,13704513,1513,151357,201.49,0.152
346,2017,NonResidential,Large Office,1000 Second Avenue,1000 Second Avenue,98104.0,7.0,DOWNTOWN,47.60567,-122.33511,1986,41,1.0,589921,129432,20162015.0,86.0,50.4,48.7,158.3,152.9,24233582,23407882,0,24233579,7102456,0,0,100.26,0.17
347,2017,NonResidential,Small- and Mid-Sized Office,1015 Second Avenue,1015 Second Avenue,98104.0,7.0,DOWNTOWN,47.60542,-122.33588,1950,6,1.0,91091,1392,0.0,,15.1,15.0,41.5,41.3,1351414,1343956,270981,1080432,316656,0,0,18.88,0.207
348,2017,NonResidential,Large Office,1101 Second Avenue (HOB),1101 2nd Avenue,98101.0,7.0,DOWNTOWN,47.60581,-122.33664,1968,8,1.0,157941,62993,2016.0,81.0,45.1,45.1,141.7,141.7,3828622,3828622,0,3828621,1122104,0,0,15.84,0.1
349,2017,NonResidential,Large Office,2nd and Seneca,1191 2nd Avenue,98101.0,7.0,DOWNTOWN,47.60614,-122.33674,1991,29,1.0,635303,197231,2.0172016201520142e+39,97.0,31.1,31.0,96.7,96.6,16237433,16217978,241307,15996123,4688195,0,0,79.01,0.124
350,2017,NonResidential,Large Office,Second And Spring Building,1100 Second Avenue,98101.0,7.0,DOWNTOWN,47.60642,-122.33581,1958,6,1.0,172842,25920,0.0,,293.2,292.6,891.4,890.8,40817112,40740812,0,38871387,11392552,19457,1945721,264.15,1.528
351,2017,NonResidential,Large Office,1111 Third Avenue,1111 3rd Ave Suite 310,98101.0,7.0,DOWNTOWN,47.60655,-122.33533,1980,34,1.0,776762,162604,2018201620092008.0,87.0,54.9,54.2,171.1,168.9,33266582,32835230,0,32902584,9643196,3639,363993,155.45,0.2
352,2017,NonResidential,Large Office,Abraham Lincoln Building (Wallysons Inc),1110 Third Avenue,98101.0,7.0,DOWNTOWN,47.60671,-122.33456,1972,14,1.0,186768,23775,2018201620142012.0,95.0,57.1,56.5,148.7,147.8,10429615,10318177,2878771,7550842,2213025,0,0,184.28,0.987
353,2017,NonResidential,Large Office,Safeco Plaza,1001 Fourth Avenue,98154.0,7.0,DOWNTOWN,47.60615,-122.33388,1969,49,1.0,1123435,368980,2.0182017201620152e+27,84.0,60.4,59.2,168.2,165.5,51704948,50716536,0,42969666,12593689,87352,8735275,641.7,0.571
354,2017,NonResidential,Large Office,Fourth & Madison,925 Fourth Avenue,98104.0,7.0,DOWNTOWN,47.60549,-122.33319,2002,37,1.0,1052469,164420,2.0182017201620153e+59,93.0,46.5,45.9,146.0,144.2,41397344,40890072,0,41397342,12132867,0,0,171.27,0.163
355,2017,NonResidential,Large Office,901 Fifth Avenue,901 Fifth Avenue,98164.0,7.0,DOWNTOWN,47.60616,-122.33165,1973,42,1.0,617684,171500,2018201520142013.0,90.0,62.8,62.1,192.0,190.0,37655032,37214032,1620345,36034681,10561161,0,0,235.22,0.381
356,2017,NonResidential,Large Office,The Central Building,810 Third Avenue,98104.0,7.0,DOWNTOWN,47.60471,-122.33261,1907,8,1.0,201480,0,0.0,83.0,56.3,55.1,156.2,152.9,11344803,11106079,2141673,9203128,2697282,0,0,151.93,0.754
357,2017,Nonresidential COS,Large Office,Seattle Municipal Tower,700 Fifth Avenue,98104.0,3.0,DOWNTOWN,47.60501,-122.32988,1990,63,1.0,1354987,159600,2.017201420132011e+31,96.0,41.0,41.0,128.7,128.7,50145112,50145112,0,50092558,14681289,525,52550,210.03,0.155
358,2017,Nonresidential COS,Large Office,Justice Center,610 5th Ave,98104.0,3.0,DOWNTOWN,47.60421,-122.32919,2001,14,1.0,310490,0,0.0,78.0,72.5,71.8,182.8,182.0,21618256,21404186,0,15234035,4464840,63842,6384217,402.09,1.295
359,2017,Nonresidential COS,Large Office,City Hall,600 4th Ave,98104.0,7.0,DOWNTOWN,47.60377,-122.32971,2003,8,1.0,199530,30660,0.0,66.0,79.3,78.0,190.8,189.5,14587453,14355251,0,9474937,2776945,51125,5112514,310.72,1.557
360,2017,NonResidential,Large Office,Chinook Building,401 Fifth Ave.,98104.0,7.0,DOWNTOWN,47.60249,-122.32854,2006,13,1.0,372242,52703,0.0,98.0,50.4,49.8,137.5,136.1,14319421,14156056,0,11504724,3371842,28146,2814694,197.08,0.529
361,2017,NonResidential,Large Office,Yesler Building,400 YESLER WAY,98104.0,7.0,DOWNTOWN,47.60193,-122.32812,1909,7,1.0,114395,8296,0.0,99.0,30.0,29.2,65.6,64.8,2894556,2819042,0,1576795,462132,13177,1317761,76.51,0.669
363,2017,NonResidential,Retail Store,University Book Store,4326 University Way NE,98105.0,4.0,NORTHEAST,47.66024,-122.31278,1978,2,1.0,89200,0,0.0,82.0,79.2,77.1,216.7,213.4,7066949,6873138,0,5698702,1670194,13682,1368246,96.24,1.079
364,2017,NonResidential,Large Office,UW Tower Bldg Complex,4333 Brooklyn Ave,98195.0,4.0,NORTHEAST,47.66072,-122.31466,1971,23,1.0,474546,0,0.0,73.0,65.1,63.9,204.3,200.7,30870882,30325512,0,30870878,9047737,0,0,127.72,0.269
365,2017,NonResidential,Other,UW Tower Data Center,4333 BROOKLYN AVE NE,98185.0,4.0,NORTHEAST,47.6606,-122.31512,1969,5,1.0,36000,0,2.017201620152014e+19,98.0,924.4,924.4,2902.5,2902.5,33276844,33276844,0,33276840,9752884,0,0,137.67,3.824
366,2017,NonResidential,Small- and Mid-Sized Office,University District Office Buiding,1107 NE 45th St,98105.0,4.0,NORTHEAST,47.661,-122.31626,1961,5,0.0,99005,0,0.0,77.0,52.2,51.9,128.2,127.7,4154184,4124997,0,2791740,818212,13624,1362443,83.91,0.848
367,2017,NonResidential,Large Office,4311 Roosevelt,4311 11th Avenue NE,98105.0,4.0,NORTHEAST,47.66065,-122.31689,2002,6,1.0,135051,44248,2.0182017201620152e+31,91.0,44.1,44.1,138.6,138.6,4235464,4235464,0,4235464,1241343,0,0,17.52,0.13
368,2017,NonResidential,Large Office,4300 Roosevelt,4300 Roosevelt Way NE,98105.0,4.0,NORTHEAST,47.65999,-122.31741,2002,5,1.0,220649,82720,2.0182017201620152e+27,94.0,46.6,46.6,146.3,146.3,6792176,6792176,0,6792175,1990672,0,0,28.1,0.127
369,2017,NonResidential,Self-Storage Facility,Seattle Vault Self Storage,1800 Terry Ave.,98101.0,7.0,DOWNTOWN,47.61591,-122.33238,1964,5,1.0,93660,0,0.0,,8.2,8.2,25.7,25.7,767459,767459,0,767459,224929,0,0,3.18,0.034
370,2017,NonResidential,Large Office,Metropolitan Park West,1100 Olive Way,98101.0,7.0,DOWNTOWN,47.61597,-122.33086,1980,18,1.0,413715,64660,2.0182017201620152e+27,85.0,62.4,62.4,195.4,195.4,21735864,21735864,0,21640526,6342475,953,95335,94.59,0.229
371,2017,NonResidential,Mixed Use Property,METROPOLITAN PARK NORTH (ID371),1220 HOWELL ST,98101.0,7.0,DOWNTOWN,47.6177,-122.3306,2000,11,1.0,380312,195621,2018201720152010.0,86.0,59.4,59.3,185.1,185.0,11175030,11172607,0,11056876,3240585,1181,118153,52.02,0.137
372,2017,NonResidential,Large Office,Metropolitan Park East,1730 Minor Avenue,98101.0,7.0,DOWNTOWN,47.61695,-122.32965,1988,20,1.0,497513,118744,2015201320122010.0,79.0,57.8,57.8,179.9,179.9,21235516,21235516,0,20976699,6147919,2588,258813,100.53,0.202
373,2017,NonResidential,Large Office,Fourth and Blanchard,2101 Fourth Avenue,98121.0,7.0,DOWNTOWN,47.61431,-122.34244,1979,24,1.0,543876,116721,0.0,79.0,61.2,59.8,192.0,187.7,25930814,25349910,0,25930811,7599886,0,0,107.28,0.197
374,2017,NonResidential,Mixed Use Property,ECONET (ID#374),3005 1ST AVE,98121.0,7.0,DOWNTOWN,47.6177,-122.3545,1980,4,1.0,109347,38700,0.0,,127.3,126.8,378.8,378.3,8994256,8959136,0,8285248,2428267,7090,709005,71.93,0.658
375,2017,NonResidential,Large Office,Third and Broad,2901 Third Avenue,98121.0,7.0,DOWNTOWN,47.6182,-122.352,1982,6,1.0,396626,124216,0.0,72.0,72.5,71.8,227.6,225.4,19861542,19669304,0,19861540,5821084,0,0,82.17,0.207
376,2017,NonResidential,Large Office,5th and Bell,2301 5th Ave,98121.0,7.0,DOWNTOWN,47.61598,-122.34369,2002,6,1.0,287471,83591,2.0162011201020092e+19,82.0,70.3,70.3,220.7,220.7,13999142,14001903,0,13999140,4102913,0,0,57.92,0.201
377,2017,NonResidential,Large Office,Fifth and Wall LLC,521 Wall Street,98121.0,7.0,DOWNTOWN,47.61734,-122.34434,1947,3,1.0,192630,48512,2007.0,92.0,40.5,39.4,120.7,117.0,5925299,5757636,0,5460536,1600391,4647,464762,47.27,0.245
379,2017,NonResidential,Large Office,3101 Western Avenue,3101 Western Avenue,98121.0,7.0,DOWNTOWN,47.6176,-122.35686,1984,8,1.0,253103,61986,2010.0,1.0,176.9,176.9,555.3,555.3,32862192,32862192,0,32862190,9631357,0,0,135.95,0.537
381,2017,NonResidential,Supermarket / Grocery Store,70500872 -- Holman Road,9999 Holman Road NW,98117.0,6.0,NORTHWEST,47.7019,-122.36374,1956,1,1.0,60880,0,0.0,69.0,220.2,219.9,492.4,491.8,13581690,13562542,0,7705961,2258488,58757,5875727,343.94,5.649
382,2017,NonResidential,Small- and Mid-Sized Office,Collins Building,524 2nd Ave,98104.0,7.0,DOWNTOWN,47.60227,-122.33202,1900,5,1.0,50176,0,0.0,,67.0,64.1,200.0,190.9,3357531,3213536,0,3106573,910484,2509,250957,26.18,0.522
383,2017,NonResidential,Large Office,Smith Tower,506 Second Avenue,98104.0,7.0,DOWNTOWN,47.60198,-122.33174,1912,42,1.0,304346,0,0.0,72.0,94.8,100.0,197.7,207.4,25739626,25091806,1197529,12656930,3709534,118851,11885164,747.25,2.455
384,2017,NonResidential,Warehouse,Dawn Food Products,6901 fox ave south,98108.0,2.0,GREATER DUWAMISH,47.54066,-122.33023,1977,1,1.0,128800,0,0.0,96.0,15.2,14.4,22.0,21.2,1952548,1849045,0,377468,110629,15750,1575079,85.21,0.662
385,2017,NonResidential,Large Office,Skinner Building,1326 5th Avenue,98101.0,7.0,DOWNTOWN,47.60932,-122.33388,1927,8,1.0,226061,0,2.0182017201620153e+23,94.0,48.3,47.8,106.9,106.3,10910471,10794426,5210906,5699564,1670446,0,0,300.6,1.33
386,2017,NonResidential,Large Office,IBM Building - COS,1200 5th Avenue,98101.0,7.0,DOWNTOWN,47.60842,-122.33305,1964,22,1.0,336330,66430,0.0,80.0,73.1,72.2,179.1,178.1,19267512,19050142,5874677,12489080,3660340,9037,903753,411.97,1.225
387,2017,NonResidential,Large Office,Puget Sound Plaza,1325 4th Avenue,98101.0,7.0,DOWNTOWN,47.60869,-122.33588,1960,21,1.0,552176,253750,2017201320092008.0,68.0,105.6,95.9,230.1,203.2,31525064,28608724,15651523,15873540,4652268,0,0,897.72,1.626
388,2017,NonResidential,Large Office,Rainier Tower,1301 5th Ave,98101.0,7.0,DOWNTOWN,47.60896,-122.33481,1976,42,1.0,635824,0,0.0,76.0,62.5,62.5,196.2,196.2,40904092,40912296,0,40904086,11988302,0,0,169.22,0.266
389,2017,NonResidential,Hotel,Fairmont Olympic,411 University Street,98101.0,7.0,DOWNTOWN,47.60804,-122.33391,1923,12,1.0,542305,0,0.0,30.0,113.1,113.0,227.7,227.5,58113856,58085452,29026588,24651440,7224924,44358,4435822,1880.66,3.468
390,2017,NonResidential,Retail Store,RAINIER ELECTRONICS LLC,2700 RAINIER AVE. S.,98144.0,2.0,SOUTHEAST,47.57936,-122.29744,1980,2,1.0,291940,0,0.0,79.0,43.0,41.7,119.3,117.0,12560712,12180714,0,10353117,3034325,22075,2207593,160.08,0.548
391,2017,NonResidential,Mixed Use Property,Thaw Building,8300 Military Rd South,98108.0,2.0,GREATER DUWAMISH,47.52871,-122.29443,1970,1,0.0,88400,0,0.0,44.0,51.0,49.6,110.0,108.6,4632290,4507348,0,2450931,718326,21813,2181358,125.99,1.425
392,2017,NonResidential,Warehouse,Linden Bldg,910 N 137th St,98133.0,5.0,NORTHWEST,47.72912,-122.34677,1960,1,1.0,52311,0,0.0,98.0,15.5,14.1,17.3,15.7,794310,718580,0,23507,6889,7708,770802,41.03,0.784
393,2017,NonResidential,Large Office,500 Yale,500 Yale Ave N,98109.0,7.0,LAKE UNION,47.62323,-122.33028,2009,5,1.0,141131,69710,0.0,100.0,38.4,38.4,120.7,120.7,3005342,3005342,0,3005342,880815,0,0,12.43,0.088
394,2017,NonResidential,Large Office,501 Eastlake Ave. (ID394) Republican Building,501 EASTLAKE AVE E,98109.0,7.0,LAKE UNION,47.62333,-122.3296,2001,5,1.0,176532,70067,2015.0,61.0,60.1,60.1,188.7,188.7,6218733,6218733,0,6218732,1822606,0,0,25.73,0.146
395,2017,NonResidential,Warehouse,Ferguson Terminal,4205 9th Ave NW,98107.0,6.0,BALLARD,47.65825,-122.3683,1973,1,1.0,52500,0,0.0,2.0,76.4,75.1,212.5,211.2,4220412,4151632,0,3496990,1024909,7234,723421,52.89,1.007
396,2017,NonResidential,Warehouse,SBC396,5301 Shilshole Ave NW,98107.0,6.0,BALLARD,47.66587,-122.38476,1959,2,1.0,57300,0,0.0,59.0,79.0,76.8,151.6,149.2,4528610,4399592,0,1880725,551209,26478,2647885,148.41,2.59
398,2017,NonResidential,Large Office,2601 Elliott Avenue,2601 Elliott Avenue,98121.0,7.0,DOWNTOWN,47.61429,-122.35263,1916,6,1.0,350310,0,2017.0,87.0,58.0,57.9,168.1,168.1,19703856,19688148,0,17431783,5108963,22720,2272068,192.79,0.55
399,2017,NonResidential,Large Office,1201 Third Avenue,1201 3rd ave,98101.0,7.0,DOWNTOWN,47.60723,-122.33611,1988,55,1.0,1400000,285000,2017201120102007.0,93.0,46.1,45.1,138.7,136.0,51986012,50946108,1910474,48650053,14258515,14254,1425479,378.54,0.27
401,2017,NonResidential,Hotel,WAC aggregate,1325 6th Ave,98101.0,7.0,DOWNTOWN,47.60968,-122.33379,1930,21,1.0,305548,0,0.0,64.0,109.6,108.7,214.9,213.0,33987124,33687224,17478358,13524391,3963772,29843,2984373,1143.62,3.743
422,2017,NonResidential,Large Office,Two Union Square,601 Union St.,98101.0,7.0,DOWNTOWN,47.61043,-122.33206,1989,56,1.0,1735079,389860,20092005.0,98.0,34.9,34.4,107.3,106.0,46991252,46332688,1471912,45336629,13287406,1827,182705,275.51,0.159
402,2017,NonResidential,Large Office,US Bank Centre,1420 5th Avenue,98101.0,7.0,DOWNTOWN,47.61054,-122.33466,1989,46,1.0,1536606,512608,2.018201720162014e+39,88.0,55.5,55.0,167.4,165.9,60570092,60058776,0,56964083,16695218,36060,3606000,427.18,0.278
403,2017,NonResidential,Large Office,Logan Building,500 Union St,98101.0,7.0,DOWNTOWN,47.61003,-122.33452,1958,10,1.0,135918,0,0.0,89.0,52.1,48.2,121.4,116.1,7538594,6969688,3159620,4378972,1283403,0,0,186.09,1.369
404,2017,NonResidential,Retail Store,O'Shea Building,501 Pine Street,98101.0,7.0,DOWNTOWN,47.61159,-122.33601,1914,4,1.0,79957,0,0.0,29.0,80.2,78.2,251.8,245.7,5246650,5118092,0,5246649,1537705,0,0,21.71,0.271
405,2017,NonResidential,Large Office,The Decatur,1511 6th Avenue,98101.0,7.0,DOWNTOWN,47.61166,-122.33528,1921,4,1.0,127268,0,0.0,79.0,53.9,53.9,157.7,157.7,6544675,6544675,402939,5851805,1715066,2899,289928,61.03,0.48
406,2017,NonResidential,Large Office,520 Pike Tower,520 Pike Street,98101.0,7.0,DOWNTOWN,47.61125,-122.33494,1983,29,1.0,500000,0,2.0182017201520143e+27,92.0,47.1,45.9,147.9,144.2,20055690,19554536,0,20055686,5877985,0,0,82.97,0.166
408,2017,NonResidential,Large Office,Fourth and Pike Building,1424 4th Ave,98101.0,7.0,DOWNTOWN,47.61005,-122.3361,1926,10,0.0,132326,0,0.0,,56.1,55.2,171.0,168.2,6417472,6316040,294629,6120297,1793756,25,2545,41.12,0.311
409,2017,NonResidential,Large Office,Washington Federal,425 Pike Street,98101.0,7.0,DOWNTOWN,47.61033,-122.3357,1984,6,1.0,109830,13200,0.0,52.0,83.6,83.6,262.6,262.6,6981997,6981997,0,6981996,2046306,0,0,28.89,0.263
411,2017,NonResidential,Large Office,Joshua Green Building,1425 4th Avenue,98101.0,7.0,DOWNTOWN,47.60991,-122.33687,1910,10,1.0,130513,0,0.0,,63.2,62.7,160.0,159.3,8252167,8178964,1056478,5769586,1690969,14261,1426102,155.77,1.194
412,2017,NonResidential,Small- and Mid-Sized Office,MiKen Building,1417 Fourth Avenue,98101.0,7.0,DOWNTOWN,47.60953,-122.33647,1920,8,1.0,60660,0,0.0,87.0,49.2,49.2,154.5,154.5,2300994,2300994,0,2300993,674382,0,0,9.52,0.157
414,2017,NonResidential,Large Office,Onni 1411 Fourth Development LP,1411 4TH AVE,98101.0,7.0,DOWNTOWN,47.60923,-122.33625,1929,15,1.0,151039,0,0.0,82.0,50.3,49.8,99.1,98.5,6305023,6242355,3799384,2505638,734360,0,0,212.35,1.406
415,2017,NonResidential,Large Office,Century Square,1501 4th Ave,98101.0,7.0,DOWNTOWN,47.61022,-122.33745,1985,30,1.0,755000,134662,2018.0,78.0,67.7,66.9,206.9,204.4,44568608,44017084,377657,42729223,12523219,14617,1461721,274.48,0.364
416,2017,NonResidential,Small- and Mid-Sized Office,Chromer Building,1516 2nd Avenue,98101.0,1.0,DOWNTOWN,47.60995,-122.33904,1906,4,1.0,63540,0,0.0,75.0,62.9,62.2,151.9,151.2,3568053,3528317,0,2331542,683336,12365,1236510,75.32,1.185
417,2017,NonResidential,Large Office,Melbourne Tower,1511 3rd Ave,98101.0,7.0,DOWNTOWN,47.60987,-122.33824,1927,10,1.0,130893,0,0.0,61.0,75.2,73.5,236.2,230.7,9157627,8946314,0,9157625,2683946,0,0,37.89,0.289
418,2017,NonResidential,Mixed Use Property,Harold Poll Building,110 Union Street,98101.0,7.0,DOWNTOWN,47.60821,-122.33899,1910,5,1.0,79920,0,0.0,,36.3,36.3,114.0,113.8,2902113,2897677,0,2902113,850560,0,0,12.01,0.15
419,2017,Campus,Mixed Use Property,Main Market,1501 Pike Place,98101.0,7.0,DOWNTOWN,47.60881,-122.34119,1908,4,1.0,137400,0,0.0,,119.3,118.0,303.6,299.5,14515001,14354142,0,10382616,3042970,41323,4132383,262.42,1.91
420,2017,NonResidential,Other,Meridian (West),1506 6th Ave,98101.0,7.0,DOWNTOWN,47.61164,-122.33446,1996,6,1.0,147852,86429,0.0,,151.2,151.2,380.7,380.7,9285374,9285374,0,6524845,1912322,27605,2760527,173.61,1.174
421,2017,NonResidential,Other,Meridian (East),1501 7th Ave,98101.0,7.0,DOWNTOWN,47.61185,-122.33421,1996,4,0.0,267335,166960,0.0,,72.6,71.7,168.3,167.3,7068774,6978070,0,4286746,1256373,27820,2782026,165.49,0.619
423,2017,NonResidential,Large Office,One Union Square,600 University Street,98101.0,7.0,DOWNTOWN,47.60967,-122.33229,1980,36,1.0,794592,36606,20092005.0,97.0,34.5,33.9,106.3,104.4,26138674,25681880,0,25431089,7453426,7075,707582,142.79,0.18
424,2017,NonResidential,Large Office,PARK PLACE OFFICE BLDG (ID424),1200 6th Avenue,98101.0,7.0,DOWNTOWN,47.60909,-122.33202,1971,21,1.0,456304,102938,0.0,80.0,57.6,56.4,180.8,177.1,20218676,19802706,0,20218672,5925754,0,0,83.65,0.183
425,2017,NonResidential,Large Office,First and Stewart,101 Stewart Street,98101.0,7.0,DOWNTOWN,47.61029,-122.34089,1986,12,1.0,115857,15140,2.018201720152014e+19,88.0,47.5,46.3,149.1,145.3,4999317,4873952,0,4999316,1465215,0,0,20.68,0.179
426,2017,NonResidential,Small- and Mid-Sized Office,World Trade Center West,2200 Alaskan Way,98121.0,7.0,DOWNTOWN,47.61116,-122.34748,1999,4,1.0,87500,17500,0.0,77.0,60.4,60.4,189.6,189.6,4333955,4333955,0,4333954,1270209,0,0,17.93,0.205
427,2017,NonResidential,Large Office,World Trade Center East,2211 Elliott Ave,98121.0,7.0,DOWNTOWN,47.6117,-122.34778,1998,11,1.0,374405,184776,2.0182017201620152e+19,83.0,59.1,59.1,185.5,185.5,11390122,11390122,0,11390120,3338253,0,0,47.12,0.126
428,2017,NonResidential,Other,Lenora,120 Lenora,98121.0,7.0,DOWNTOWN,47.61252,-122.34351,1985,12,1.0,193500,38000,0.0,,97.8,97.8,307.0,307.0,14342369,14342369,0,14342367,4203507,0,0,59.34,0.307
429,2017,NonResidential,Large Office,Terminal Sales Building,1932 1st Avenue,98101.0,7.0,DOWNTOWN,47.61108,-122.34217,1923,11,1.0,102846,0,0.0,,52.6,51.4,85.9,84.4,5330894,5205840,4144720,1186173,347647,0,0,225.25,2.19
430,2017,NonResidential,Small- and Mid-Sized Office,The Marshall Building,2013 4th Avenue,98121.0,7.0,DOWNTOWN,47.61304,-122.34059,1925,4,1.0,52800,0,0.0,83.0,48.2,46.9,125.2,122.4,2499177,2429836,0,1849261,541987,6499,649915,42.17,0.799
432,2017,Campus,Mixed Use Property,Securities Building Campus,1904 Third Avenue,98101.0,7.0,DOWNTOWN,47.61229,-122.33903,1913,10,3.0,448832,180000,0.0,,73.4,73.1,195.0,194.7,19730542,19649132,4916629,14813911,4341709,0,0,322.66,0.719
433,2017,NonResidential,Retail Store,(71367A) SEATTLE Macy's,300 PINE STREET,98181.0,1.0,DOWNTOWN,47.6113,-122.33844,1929,8,1.0,861702,0,0.0,,29.3,29.1,74.3,74.0,26118134,25877786,8184870,17933164,5255910,0,95,509.31,0.591
434,2017,NonResidential,Other,Benaroya Research Institute at Virginia Mason,1201 9th Ave,98101.0,7.0,EAST,47.61,-122.32922,1999,5,1.0,206950,97400,0.0,,88.8,88.3,261.0,259.4,18372500,18265720,1893507,16478880,4829683,1,110,168.84,0.816
435,2017,NonResidential,Other,Washington State Convention Center,705 Pike St,98101.0,7.0,DOWNTOWN,47.61195,-122.33167,1990,6,1.0,1758750,686750,0.0,,72.6,71.8,189.1,188.0,77866936,76931544,19829468,56412922,16533682,16245,1624540,1373.82,0.781
436,2017,NonResidential,Other,VM Seattle Hospital & Medical Center - Health Resources Building,909 University Street,98101.0,3.0,EAST,47.61048,-122.32837,1988,9,1.0,46710,0,0.0,,98.1,95.8,234.4,229.4,4580105,4473407,1771332,2808772,823204,0,0,105.79,2.265
437,2017,NonResidential,Medical Office,VM Seattle Hospital & Medical Center - Lindeman Pavilion,901 University Street,98101.0,3.0,EAST,47.61048,-122.32837,1945,3,1.0,266000,104000,0.0,66.0,88.7,87.5,250.7,247.3,14370171,14172636,463231,12182036,3570350,17249,1724901,166.63,0.626
438,2017,NonResidential,Medical Office,1101 Madison Tower,1101 Madison,98104.0,3.0,EAST,47.60921,-122.32425,1992,14,1.0,690158,407795,2012201020072006.0,45.0,97.6,97.6,306.6,306.6,26399406,26399406,0,26399403,7737222,0,0,109.22,0.158
439,2017,NonResidential,Mixed Use Property,KOMO Plaza - East Building,140 4th Ave N,98109.0,7.0,LAKE UNION,47.61915,-122.34857,2001,6,1.0,358427,164332,0.0,100.0,278.3,278.3,856.9,856.9,54011324,54011452,0,52446793,15371276,15645,1564523,300.07,0.837
440,2017,NonResidential,Mixed Use Property,KOMO Plaza - West Building,100 4th Ave N,98109.0,7.0,LAKE UNION,47.61915,-122.34857,2001,6,1.0,213834,104922,0.0,100.0,696.4,696.4,2183.9,2183.9,73919184,73919184,0,73775649,21622406,1435,143525,312.84,1.463
441,2017,NonResidential,Hotel,Best Western Executive Inn,200 Taylor Ave N,98109.0,7.0,LAKE UNION,47.62036,-122.34588,1979,5,1.0,109017,29409,0.0,43.0,89.1,89.1,192.4,192.4,9710788,9710788,0,5154731,1510765,45560,4556057,263.3,2.415
443,2017,NonResidential,Large Office,Elliott Bay Office Park,300 Elliott Avenue West,98119.0,1.0,MAGNOLIA / QUEEN ANNE,47.62177,-122.36158,1981,5,1.0,275734,38452,0.0,,34.1,34.1,107.2,107.2,7797681,7797681,0,7797680,2285369,0,0,32.26,0.117
444,2017,NonResidential,Warehouse,FedEX van Terminal,651 S Alaska St,98104.0,2.0,GREATER DUWAMISH,47.56064,-122.32522,2001,1,1.0,123061,0,0.0,55.0,17.4,17.4,54.6,54.6,2139511,2139511,0,2139511,627054,0,0,8.85,0.072
446,2017,NonResidential,Distribution Center,Washington State Ferries Building,6000 6th Ave S,98108.0,2.0,GREATER DUWAMISH,47.54868,-122.3255,1963,1,1.0,59090,0,0.0,47.0,51.3,49.8,76.9,75.0,3028965,2940394,0,653004,191384,23759,2375959,128.89,2.181
447,2017,NonResidential,Warehouse,NWCP-SEA Sylv Bldg,750 S Michigan St,98108.0,2.0,GREATER DUWAMISH,47.5471,-122.32406,1963,1,1.0,106000,0,0.0,84.0,10.5,10.5,32.9,32.9,1111942,1111942,0,1111942,325891,0,0,4.6,0.043
449,2017,NonResidential,Large Office,1551 Eastlake,1551 Eastlake Ave E,98102.0,4.0,LAKE UNION,47.63349,-122.32634,1962,3,1.0,158600,38400,0.0,18.0,133.7,129.8,376.6,366.3,19493154,18929400,0,16477982,4829420,30151,3015167,228.31,1.44
451,2017,NonResidential,Distribution Center,Frye Distribution Center,660 S. Othello St.,98108.0,2.0,GREATER DUWAMISH,47.53764,-122.3232,1960,1,1.0,119661,0,0.0,98.0,5.9,5.9,18.6,18.6,702660,702531,0,701424,205575,12,1235,2.97,0.025
452,2017,NonResidential,Large Office,1144 Eastlake Building,1144 Eastlake Ave East,98109.0,3.0,LAKE UNION,47.62958,-122.32826,2001,7,1.0,139200,44728,0.0,72.0,62.3,62.3,195.5,195.5,5112389,5112389,0,5112388,1498355,0,0,21.15,0.152
453,2017,NonResidential,Small- and Mid-Sized Office,701 Dexter,701 Dexter Avenue North,98119.0,7.0,MAGNOLIA / QUEEN ANNE,47.62566,-122.34287,1984,6,1.0,95721,33921,0.0,98.0,28.3,28.3,88.9,89.0,2711336,2711887,0,2711336,794647,0,0,11.22,0.117
455,2017,NonResidential,Mid-Rise Multifamily,JUXT Apartments,"810 Dexter Avenue, North",98109.0,7.0,MAGNOLIA / QUEEN ANNE,47.62677,-122.3417,2016,7,1.0,391386,70542,0.0,100.0,21.4,20.8,36.8,36.1,6470205,6285012,0,2062085,604362,44081,4408119,242.65,0.62
456,2017,NonResidential,Large Office,1100 Dexter-RREEF SeaDPD ID 456,1100 Dexter Avenue North,98109.0,7.0,MAGNOLIA / QUEEN ANNE,47.62929,-122.34194,1996,5,1.0,213283,115228,20112009.0,83.0,54.7,54.7,171.7,171.7,5773017,5773655,0,5773016,1691974,0,0,23.88,0.112
457,2017,NonResidential,Large Office,1441 N. 34th Street,1441 N 34TH ST,98103.0,4.0,LAKE UNION,47.64776,-122.33924,2001,3,1.0,103697,47656,0.0,5.0,181.1,181.2,382.9,382.9,11447253,11451012,0,5827022,1707802,56202,5620229,322.6,3.111
458,2017,NonResidential,Small- and Mid-Sized Office,Northgate Exec Center B,155 NE 100th Street,98125.0,5.0,NORTH,47.70105,-122.32659,1974,5,1.0,74880,0,0.0,60.0,70.2,69.0,220.5,216.7,5038079,4952175,0,5038078,1476576,0,0,20.84,0.278
459,2017,NonResidential,Small- and Mid-Sized Office,Northgate Exec Center C,9725 3rd Avenue,98115.0,5.0,NORTH,47.69999,-122.32663,1979,6,1.0,88774,0,0.0,52.0,73.2,71.7,229.9,225.1,6248470,6117264,0,6248469,1831321,0,0,25.85,0.291
460,2017,NonResidential,Large Office,Northgate Plaza,9709 3rd Ave NE,98115.0,5.0,NORTH,47.69917,-122.3268,1983,5,1.0,122250,0,2009.0,92.0,46.5,46.5,146.1,146.1,5927044,5927044,0,5927044,1737117,0,0,24.52,0.201
461,2017,NonResidential,Small- and Mid-Sized Office,Northgate Office Building,9750 3rd Ave NE,98115.0,5.0,NORTH,47.70063,-122.32487,1979,4,1.0,53730,0,0.0,14.0,99.6,99.6,312.6,312.6,5349606,5349606,0,5349605,1567879,0,0,22.13,0.412
462,2017,NonResidential,Small- and Mid-Sized Office,Delridge Building,4045 Delridge Way,98101.0,1.0,DELRIDGE,47.5671,-122.36416,1960,3,1.0,55593,0,0.0,56.0,78.6,78.6,192.3,192.3,4369208,4370581,0,2920615,855983,14485,1448591,89.02,1.601
463,2017,NonResidential,Large Office,425 Pontius,425 Pontius Ave N,98109.0,7.0,LAKE UNION,47.62269,-122.33224,1982,4,1.0,134056,60960,0.0,54.0,67.1,65.6,210.6,205.9,4834261,4725718,0,4834260,1416840,0,0,20.0,0.149
464,2017,NonResidential,Retail Store,Costco #0001 Seattle,4401 4th Ave South,98199.0,2.0,GREATER DUWAMISH,47.5653,-122.33076,2005,1,1.0,158415,0,0.0,26.0,153.2,150.3,359.6,356.6,24262622,23811680,0,15068359,4416283,91942,9194260,550.65,3.476
734,2017,NonResidential,Small- and Mid-Sized Office,1455 Leary,1455 NW Leary Way,98107.0,6.0,BALLARD,47.6633,-122.37549,2001,4,1.0,92092,22018,0.0,8.0,66.3,66.3,208.2,208.2,4646817,4646817,0,4646816,1361904,0,0,19.22,0.209
465,2017,NonResidential,Large Office,1000 Denny Building,1000 Denny Way,98109.0,7.0,LAKE UNION,47.61907,-122.33651,1929,8,1.0,287819,0,0.0,,175.5,175.2,547.9,547.4,48263468,48190600,0,47854292,14025291,4091,409171,219.71,0.763
466,2017,NonResidential,Other,VM Seattle Hospital & Medical Center - Buck Pavilion,1100 9th Avenue,98101.0,3.0,EAST,47.60953,-122.32793,1975,8,1.0,158738,0,0.0,,363.7,363.2,979.1,977.4,57734060,57648236,6470496,44885781,13155270,63672,6367233,867.84,5.467
467,2017,NonResidential,Retail Store,70100608-Ballard,915 NW 45th Street,98107.0,6.0,BALLARD,47.66057,-122.36857,1999,1,1.0,164437,0,0.0,66.0,107.5,104.7,277.8,271.8,18996608,18508562,0,13947862,4087884,50487,5048742,325.84,1.982
468,2017,NonResidential,Large Office,Interurban Exchange II - SEDO,535 Terry Ave. North,98109.0,7.0,LAKE UNION,47.62402,-122.33755,2009,5,1.0,184482,66234,20182017.0,95.0,49.4,48.7,154.8,152.7,5903664,5824681,0,5893688,1727341,99,9975,24.91,0.135
469,2017,NonResidential,Laboratory,Rosen Building - SEDO,960 Republican St.,98109.0,7.0,LAKE UNION,47.62348,-122.33743,1928,3,1.0,55200,0,0.0,,204.7,198.8,465.7,459.6,11299267,10974909,0,6623925,1941361,46753,4675341,275.71,4.995
470,2017,NonResidential,Laboratory,401 Terry (ID470),401 TERRY AVE N,98109.0,7.0,LAKE UNION,47.62254,-122.33753,2003,4,1.0,241159,111793,0.0,,220.2,219.3,510.8,509.9,38792480,38628880,0,23570872,6908227,152216,15221603,905.93,3.757
471,2017,NonResidential,Large Office,428 Westlake,428 Westlake Avenue North,98109.0,7.0,LAKE UNION,47.62286,-122.33804,2004,6,1.0,139282,52582,0.0,89.0,48.0,48.0,150.9,150.9,4254409,4254409,0,4254409,1246896,0,0,17.6,0.126
473,2017,NonResidential,Large Office,City Place II - SEDO,500 Boren Ave. N.,98109.0,7.0,LAKE UNION,47.62383,-122.3356,2009,5,1.0,271071,98700,2.0182017201620152e+27,97.0,41.3,40.7,128.0,126.0,7646501,7532600,0,7484820,2193675,1616,161678,39.55,0.146
474,2017,NonResidential,Self-Storage Facility,08185-Lake Union,700 Fairview Ave N,98109.0,3.0,LAKE UNION,47.62572,-122.33389,1914,5,1.0,127800,0,0.0,66.0,20.9,20.4,58.5,58.0,2669956,2602657,0,2238455,656053,4315,431500,32.18,0.252
475,2017,NonResidential,Large Office,Arnold Building,1100 Fairview Ave No.,98109.0,3.0,LAKE UNION,47.62855,-122.33035,2002,5,1.0,560516,206597,0.0,71.0,83.1,81.9,206.6,203.3,30946264,30509874,0,21268169,6233344,96780,9678091,601.99,1.074
476,2017,NonResidential,Large Office,Yale,823 Yale Ave N.,98109.0,3.0,LAKE UNION,47.62621,-122.33128,2001,6,1.0,226592,95000,0.0,62.0,81.7,81.7,252.7,252.7,10753031,10753203,0,10506906,3079398,2461,246122,56.54,0.25
477,2017,Campus,Other,Weintraub/Hutchinson/Thomas,1100 Fairview Ave N,98109.0,3.0,LAKE UNION,47.62855,-122.33035,1997,5,1.0,535947,0,0.0,,253.3,248.5,514.9,505.5,135749040,133207608,0,63838137,18709888,719108,71910893,4083.29,7.619
480,2017,NonResidential,Mixed Use Property,307 Westlake - SEDO,307 Westlake Ave. N.,98109.0,7.0,LAKE UNION,47.62121,-122.33885,2003,5,1.0,159700,50654,0.0,,268.2,267.0,641.0,639.8,31111300,30977238,0,19955196,5848533,111561,11156100,675.06,4.227
481,2017,NonResidential,Large Office,Westlake Terry - East SEDO,321 Terry Ave. N.,98109.0,7.0,LAKE UNION,47.62137,-122.33744,2006,4,1.0,209816,73673,2.0182017201620152e+31,98.0,42.4,42.4,103.8,103.8,5753427,5754086,0,3851341,1128763,19020,1902085,116.95,0.557
482,2017,NonResidential,Large Office,Westlake Terry - West SEDO,320 Westlake Ave. N.,98109.0,7.0,LAKE UNION,47.62131,-122.33814,2006,6,1.0,303103,109905,2.0182017201620152e+31,97.0,39.6,38.6,119.4,116.8,7305254,7134512,0,6877195,2015590,4280,428057,51.19,0.169
484,2017,NonResidential,Mixed Use Property,Fred Rogers Building,1020 John St.,98109.0,7.0,LAKE UNION,47.62002,-122.33687,1954,3,1.0,67380,0,0.0,,46.9,44.7,101.9,97.9,3068668,2924673,0,1650032,483596,14186,1418636,82.17,1.22
487,2017,NonResidential,Laboratory,UW Medicine Research Phase I,850 Republican St.,98109.0,7.0,LAKE UNION,47.62405,-122.34036,1963,4,1.0,102235,0,0.0,,250.4,246.4,579.7,575.0,25826554,25412662,0,15629147,4580641,101974,10197404,606.24,5.93
488,2017,NonResidential,Mixed Use Property,UW Medicine Research Phase II,850 Republican Street,98109.0,7.0,LAKE UNION,47.62405,-122.34036,2008,5,1.0,436497,153684,0.0,,191.4,188.4,446.2,443.1,50575576,49799752,0,31007822,9087873,195677,19567748,1167.53,2.675
489,2017,NonResidential,Small- and Mid-Sized Office,200 West Thomas,200 West Thomas St,98119.0,7.0,MAGNOLIA / QUEEN ANNE,47.62115,-122.3597,1974,5,1.0,88062,20826,0.0,84.0,55.7,54.5,174.8,171.3,3605589,3531856,0,3605588,1056737,0,0,14.92,0.169
490,2017,NonResidential,Small- and Mid-Sized Office,North Tower,100 West Harrison,98119.0,7.0,MAGNOLIA / QUEEN ANNE,47.62224,-122.3585,1972,5,1.0,87178,20416,0.0,70.0,55.2,53.8,173.4,168.8,3679790,3583541,0,3679789,1078484,0,0,15.22,0.175
491,2017,NonResidential,Small- and Mid-Sized Office,South Tower,100 West Harrison,98119.0,7.0,MAGNOLIA / QUEEN ANNE,47.62224,-122.3585,1970,5,1.0,87178,20416,0.0,81.0,53.3,52.0,167.5,163.4,3559696,3473193,0,3559695,1043287,0,0,14.73,0.169
492,2017,NonResidential,Small- and Mid-Sized Office,Queen Anne Plaza,201 Queen Anne Ave N,98109.0,7.0,MAGNOLIA / QUEEN ANNE,47.62003,-122.35706,1985,4,1.0,86995,28800,0.0,83.0,51.2,50.4,160.9,158.2,2982344,2931331,0,2982344,874075,0,0,12.34,0.142
493,2017,NonResidential,Small- and Mid-Sized Office,200 First Ave W,200 1ST AVE W,98119.0,7.0,MAGNOLIA / QUEEN ANNE,47.62014,-122.35768,1971,5,1.0,88000,21600,0.0,71.0,64.5,64.3,172.9,172.7,4496214,4483080,0,3509380,1028540,9868,986833,66.93,0.761
494,2017,NonResidential,Medical Office,4225 Roosevelt 2ros4225,4225 Roosevelt Way NE,98105.0,4.0,NORTHEAST,47.65821,-122.31831,1988,4,1.0,196749,88405,0.0,7.0,172.9,169.0,399.7,392.2,18730266,18312982,0,11312056,3315374,74182,7418207,440.78,2.24
495,2017,NonResidential,Medical Office,4245 Roosevelt 2ros4245,4245 Roosevelt Way NE,98105.0,4.0,NORTHEAST,47.65884,-122.3183,1994,4,1.0,191276,95281,0.0,20.0,93.9,93.9,286.6,286.6,9012448,9012448,0,8637185,2531414,3752,375261,55.66,0.291
496,2017,NonResidential,Self-Storage Facility,Market St Center,2811 NW Market Street,98107.0,6.0,BALLARD,47.66838,-122.3931,1946,2,2.0,111445,0,0.0,,48.8,47.5,101.0,99.7,5807330,5658287,0,2836438,831312,29708,2970891,169.52,1.521
497,2017,NonResidential,Self-Storage Facility,08176-West Seattle,2964 Sw Avalon Way,98126.0,1.0,SOUTHWEST,47.56885,-122.37121,1997,4,1.0,98475,0,0.0,85.0,11.2,10.9,27.6,27.3,1098615,1075601,0,748115,219260,3505,350499,21.71,0.22
498,2017,NonResidential,Hospital,SCCA,825 Eastlake Ave E,98109.0,3.0,LAKE UNION,47.62667,-122.32965,2000,7,1.0,351530,150455,0.0,,212.5,210.3,481.2,478.5,45805132,45337792,0,26623936,7803029,191811,19181192,1128.86,3.211
499,2017,NonResidential,Small- and Mid-Sized Office,ASIAN COUNSELING and REFERRAL SERVICE,3639 Martin Luther King Jr. Way S.,98144.0,2.0,GREATER DUWAMISH,47.57083,-122.29732,2008,3,1.0,76598,21410,0.0,88.0,73.3,72.8,159.5,158.9,4042800,4020271,0,2179484,638770,18633,1863316,107.98,1.41
500,2017,NonResidential,Supermarket / Grocery Store,70100179-Lake City,13000 Lake City Way NE,98125.0,5.0,NORTH,47.7237,-122.29232,1995,2,1.0,308965,187878,0.0,87.0,115.1,112.6,302.6,296.6,13942242,13633940,0,10526675,3085192,34155,3415564,224.95,0.728
503,2017,NonResidential,Supermarket / Grocery Store,RESTAURANT DEPOT SEATTLE (ID503),3670 E MARGINAL WAY S,98134.0,2.0,GREATER DUWAMISH,47.56895,-122.33775,2008,1,1.0,63225,0,0.0,100.0,111.7,111.7,350.6,350.6,7059693,7059693,0,7059692,2069077,0,0,29.21,0.462
504,2017,Nonresidential COS,Other,Westbridge,4209 W Marginal Way SW,98118.0,1.0,DELRIDGE,47.56548,-122.35378,1955,1,0.0,113780,0,0.0,,42.7,42.1,74.1,73.6,4855320,4795428,0,1595101,467497,32602,3260218,179.75,1.58
507,2017,NonResidential,Other,Skyline/East Marginal 2.0,4401 E Marginal Way S,98134.0,2.0,GREATER DUWAMISH,47.56419,-122.34262,1999,1,1.0,243044,0,0.0,11.0,68.7,68.5,210.0,209.9,22354008,22307150,0,21474691,6293872,8793,879312,135.54,0.558
508,2017,NonResidential,Other,The Park View Building,601 N 34th St,98103.0,6.0,LAKE UNION,47.64942,-122.35024,2001,3,1.0,280252,156312,0.0,,91.7,91.7,287.9,287.9,11362233,11362233,0,11362232,3330079,0,0,47.01,0.168
513,2017,NonResidential,Other,Q13 FOX,1813 Westlake Ave N,98109.0,7.0,MAGNOLIA / QUEEN ANNE,47.63549,-122.34103,1952,3,1.0,66462,12998,0.0,,51.7,51.7,162.4,162.4,3723936,3723936,0,3723935,1091423,0,0,15.41,0.232
514,2017,NonResidential,Retail Store,W000252-NORTH SEATTLE WA,12525 AURORA AVENUE NORTH,98133.0,5.0,NORTHWEST,47.72053,-122.34739,1997,1,1.0,131387,0,0.0,73.0,85.0,82.2,236.9,232.2,9175851,8872287,0,7624673,2234664,15511,1551175,113.93,0.867
515,2017,NonResidential,Self-Storage Facility,0643-Seattle - North 130th Street,1430 North 130th Street,98133.0,5.0,NORTHWEST,47.72377,-122.34095,1999,3,1.0,94400,0,0.0,37.0,12.9,12.7,34.0,33.8,869355,854687,0,655455,192103,2139,213900,14.07,0.149
516,2017,NonResidential,Other,Aurora Shopping Center,13201 Aurora Avenue North,98133.0,5.0,NORTHWEST,47.72546,-122.34659,1964,1,6.0,111900,0,0.0,,96.1,94.9,243.0,241.6,11940622,11784848,0,8442463,2474344,34981,3498157,220.71,1.972
517,2017,NonResidential,Supermarket / Grocery Store,Sam's Club #18-6687,13550 Aurora Ave. N.,98133.0,5.0,NORTHWEST,47.72803,-122.34214,1984,1,0.0,144776,0,0.0,56.0,96.8,95.1,254.3,252.6,14011996,13774944,0,10576566,3099814,34354,3435428,226.21,1.562
518,2017,NonResidential,Retail Store,AURORA ACRES (ID518),13200 AURORA AVE N,98133.0,5.0,NORTHWEST,47.7249,-122.34332,1967,1,1.0,114000,0,0.0,75.0,164.7,162.8,329.0,327.1,18798718,18574232,0,8517922,2496460,102807,10280794,581.25,5.099
519,2017,NonResidential,Supermarket / Grocery Store,00410-Hwy 99 & 130th,13050 Aurora Avenue North,98133.0,5.0,NORTHWEST,47.7235,-122.34458,1997,1,1.0,50083,0,0.0,79.0,188.0,184.9,470.6,467.4,9410348,9257746,0,6544147,1917979,28662,2866200,179.3,3.58
520,2017,NonResidential,Large Office,Burke Building,400 North 34th Street,98103.0,6.0,LAKE UNION,47.65086,-122.35412,1988,3,1.0,124071,28645,0.0,73.0,53.7,51.8,168.8,162.8,5186626,5003482,0,5186625,1520113,0,0,21.46,0.173
521,2017,NonResidential,Small- and Mid-Sized Office,The Evanston Building,501 N 34th Street,98103.0,6.0,LAKE UNION,47.64963,-122.35158,2000,4,1.0,90000,36528,0.0,80.0,47.9,47.9,150.4,150.4,4312058,4312058,0,4312057,1263791,0,0,17.84,0.198
522,2017,NonResidential,Small- and Mid-Sized Office,The Waterside Building,651 N 34th St,98103.0,6.0,LAKE UNION,47.64849,-122.35041,2001,3,1.0,96041,33709,0.0,72.0,87.0,87.0,273.3,273.3,5415896,5415896,0,5415895,1587308,0,0,22.41,0.233
523,2017,NonResidential,Large Office,Adobe Seattle,801 N 34th,98103.0,6.0,LAKE UNION,47.64822,-122.34848,1999,3,1.0,280957,114829,2.0172016201520141e+31,96.0,66.9,66.9,205.3,205.3,11037208,11037208,0,10660724,3124479,3723,372340,63.88,0.227
524,2017,NonResidential,Large Office,Plaza 701 N 34th,701 N. 34th Street,98103.0,6.0,LAKE UNION,47.64882,-122.34905,1999,4,1.0,243334,103032,2018201720162012.0,88.0,56.3,56.3,168.9,168.9,7826558,7826558,0,7300838,2139753,5257,525718,58.13,0.239
525,2017,NonResidential,Other,Seattle Art Museum,1300 1st Avenue,98101.0,7.0,DOWNTOWN,47.6074,-122.33777,1991,6,1.0,154660,0,0.0,,156.1,153.9,329.1,326.6,39482244,38948320,20266704,18523630,5428965,6919,691908,1190.78,7.699
526,2017,NonResidential,Large Office,Seattle Design Center (Plaza Center),5601 6th Ave. S,98108.0,2.0,GREATER DUWAMISH,47.55146,-122.32832,1982,5,1.0,390295,121375,0.0,92.0,36.4,36.4,114.1,114.1,8833847,8833847,0,8833845,2589052,0,0,36.55,0.094
527,2017,NonResidential,Warehouse,Northwest Corporate Park,5900 4th Ave S,98108.0,2.0,GREATER DUWAMISH,47.54983,-122.32858,1967,2,1.0,90000,0,0.0,86.0,18.2,17.9,51.8,51.6,1633543,1613926,0,1411008,413542,2225,222534,17.66,0.196
528,2017,NonResidential,Warehouse,Oregon Tile & Marble,5930 6th Ave. South,98108.0,2.0,GREATER DUWAMISH,47.55032,-122.32614,1966,1,1.0,50200,0,0.0,56.0,22.3,21.5,44.4,43.6,1119145,1079688,0,503857,147672,6152,615288,34.76,0.692
529,2017,NonResidential,Small- and Mid-Sized Office,Ballard Building,2208 NW Market Street,98107.0,6.0,BALLARD,47.66891,-122.38528,1925,6,1.0,94033,6200,0.0,,60.9,59.7,138.9,136.6,5113376,5011970,0,3013247,883132,21001,2100128,124.0,1.319
530,2017,NonResidential,Warehouse,Magnum Building,5422 Shilshole Avenue NW,98107.0,6.0,BALLARD,47.66724,-122.38553,1941,2,1.0,63240,0,0.0,100.0,3.8,3.5,7.3,6.9,242921,220986,0,98004,28723,1449,144916,8.1,0.128
531,2017,NonResidential,Other,Ballard Blocks I - 531,1416 NW 46th ST,98107.0,6.0,BALLARD,47.66233,-122.3748,2008,2,1.0,224267,155111,0.0,,147.9,147.3,327.2,326.6,10226525,10184317,0,5688830,1667300,45376,4537693,264.53,1.18
532,2017,NonResidential,Retail Store,Ballard Blocks I - 532,4609 14th Avenue NW,98107.0,6.0,BALLARD,47.66242,-122.374,2008,2,1.0,91327,27293,0.0,,116.7,114.6,292.2,290.0,7474529,7340126,0,5198492,1523591,22760,2276035,142.39,1.559
533,2017,NonResidential,Self-Storage Facility,08168-Queen Anne/Magnolia,3000 15th Ave West,98119.0,7.0,MAGNOLIA / QUEEN ANNE,47.64676,-122.37581,1988,4,1.0,130293,23400,0.0,,2.8,2.8,8.9,8.9,369966,369966,0,369966,108431,0,0,1.53,0.012
534,2017,NonResidential,Warehouse,Nickerson Street Self  Storage,1300 W. Nickerson Street,98119.0,7.0,MAGNOLIA / QUEEN ANNE,47.65567,-122.37478,1997,4,1.0,106041,0,0.0,94.0,11.6,10.9,28.7,27.5,1225710,1157239,0,839126,245933,3865,386584,24.0,0.226
536,2017,NonResidential,Self-Storage Facility,Magnolia Bridge Self Storage,1900 15th Ave W.,98119.0,7.0,MAGNOLIA / QUEEN ANNE,47.63634,-122.3754,1956,3,1.0,94470,0,0.0,,13.3,12.3,23.9,22.8,1252325,1165479,0,449571,131761,8027,802754,44.49,0.471
538,2017,NonResidential,Large Office,Fifth and Jackson,315 Fifth Avenue,98104.0,2.0,DOWNTOWN,47.59963,-122.32796,2002,10,1.0,181694,38186,0.0,86.0,51.0,50.1,160.1,157.2,7801164,7661501,0,7801163,2286390,0,0,32.27,0.178
539,2017,NonResidential,Retail Store,University Center,4501 Roosevelt Way NE,98105.0,4.0,NORTHEAST,47.66178,-122.31812,1987,2,1.0,69492,0,0.0,82.0,30.6,30.6,96.2,96.2,2138737,2138737,0,2138737,626828,0,0,8.85,0.127
540,2017,NonResidential,Warehouse,NWCP-SEA Bldg K,6136 6th Ave S,98108.0,2.0,GREATER DUWAMISH,47.54769,-122.3251,1966,1,1.0,22780,0,0.0,38.0,17.6,17.6,55.1,55.1,400049,400049,0,400049,117247,0,0,1.66,0.073
543,2017,NonResidential,Distribution Center,Seattle Distribution Center Bldg A,6701-6795 E. Marginal Way S.,98168.0,2.0,GREATER DUWAMISH,47.54187,-122.32714,1967,1,1.0,124472,0,0.0,54.0,54.7,53.5,80.0,78.8,6799905,6658115,0,1343909,393877,54559,5455996,295.33,2.373
544,2017,NonResidential,Distribution Center,Seattle Distribution Center Bldg B,6701-6797 E Marginal Way S.,98168.0,1.0,GREATER DUWAMISH,47.5422,-122.32908,1967,1,1.0,50065,0,0.0,63.0,34.4,32.7,70.7,68.8,1756460,1666470,0,843120,247104,9133,913340,52.0,1.039
545,2017,NonResidential,Distribution Center,GLACIER NORTHWEST (6335 1st Ave S),6335 1st Ave S,98108.0,2.0,GREATER DUWAMISH,47.54621,-122.33486,1969,1,1.0,57540,0,0.0,27.0,41.7,41.4,99.1,98.8,2397620,2384416,0,1523166,446414,8744,874454,52.74,0.917
546,2017,NonResidential,Warehouse,NWCP-SEA Bldg A,410 S Front Street,98108.0,2.0,GREATER DUWAMISH,47.54853,-122.32814,1966,1,1.0,85400,0,0.0,51.0,18.1,18.1,56.8,56.8,1545460,1545460,0,1545460,452948,0,0,6.39,0.075
547,2017,NonResidential,Warehouse,NWCP-SEA Bldg B,6001 6th Ave S,98108.0,2.0,GREATER DUWAMISH,47.54912,-122.32819,1966,1,1.0,55700,0,0.0,68.0,8.8,8.8,27.7,27.7,491688,491688,0,491688,144105,0,0,2.03,0.037
548,2017,NonResidential,Small- and Mid-Sized Office,Resource Center,5933 6th Ave S,98108.0,2.0,GREATER DUWAMISH,47.54965,-122.3278,1964,1,1.0,53250,0,0.0,96.0,34.9,33.4,77.6,75.8,1843817,1761913,0,1032020,302468,8117,811797,47.38,0.89
549,2017,NonResidential,Small- and Mid-Sized Office,400 Mercer Street,400 Mercer Street,98109.0,7.0,MAGNOLIA / QUEEN ANNE,47.62476,-122.34843,1987,6,1.0,80019,28427,0.0,100.0,23.1,23.0,51.9,51.8,1819156,1811569,0,1038728,304433,7804,780428,45.75,0.572
550,2017,NonResidential,Self-Storage Facility,21517-Seattle / Aurora AVE N,11512 Aurora Avenue N,98133.0,5.0,NORTHWEST,47.71286,-122.34422,1986,3,1.0,64660,0,0.0,89.0,5.1,5.0,13.2,13.1,329908,326459,0,242808,71163,871,87100,5.63,0.087
551,2017,NonResidential,Mixed Use Property,Richmark Label,1110 East Pine Street,98122.0,3.0,EAST,47.61552,-122.31744,1927,2,1.0,75844,19928,0.0,,57.9,56.7,170.7,168.0,3894615,3812147,0,3539871,1037476,3547,354743,33.49,0.442
552,2017,NonResidential,Distribution Center,South Seattle Distribution Center- 3800,3800 1st Avenue South,98134.0,2.0,GREATER DUWAMISH,47.5701,-122.33342,1968,1,1.0,161678,0,0.0,27.0,59.6,58.3,144.7,143.2,9687446,9471704,0,6374968,1868396,33124,3312477,202.3,1.251
553,2017,NonResidential,Distribution Center,South Seattle Distribution Center- 3844,3844 1ST AVE S,98134.0,2.0,GREATER DUWAMISH,47.56874,-122.33303,1949,1,1.0,101101,0,0.0,1.0,207.3,205.8,650.6,646.0,20959554,20809958,0,20942026,6137757,175,17524,87.57,0.866
554,2017,NonResidential,Distribution Center,South Seattle Distribution Center- 3601,3601 2ND AVE S,98134.0,2.0,GREATER DUWAMISH,47.57023,-122.33241,1980,1,1.0,52613,0,2018.0,79.0,24.1,22.5,41.0,39.3,1434824,1338178,0,446822,130956,9880,988001,54.32,1.032
555,2017,NonResidential,Other,Cascade Designs Inc. ( Yosemite ),4000 1st Ave. South,98134.0,2.0,GREATER DUWAMISH,47.56785,-122.33361,1940,1,1.0,56608,0,0.0,,838.9,838.9,1022.4,1022.4,47699676,47699676,0,3851582,1128834,438480,43848093,2344.71,41.42
556,2017,NonResidential,Refrigerated Warehouse,Charlies Produce,4103 2nd Ave South,98134.0,2.0,GREATER DUWAMISH,47.56637,-122.33273,1953,1,1.0,104099,0,0.0,,167.2,166.6,511.1,509.9,17406674,17339758,0,16713634,4898486,6930,693037,105.95,1.018
557,2017,NonResidential,Supermarket / Grocery Store,Safeway 1845 - Greenwood Ave,8704 Greenwood Ave N,98103.0,5.0,NORTHWEST,47.69267,-122.35506,2003,1,1.0,58184,7450,0.0,57.0,271.9,271.9,586.8,586.8,14061496,14064050,0,7456925,2185499,66045,6604570,381.62,6.559
558,2017,NonResidential,Supermarket / Grocery Store,70500858 -- North Seattle,1531 NE 145th Street,98155.0,5.0,NORTH,47.73315,-122.3105,1980,1,1.0,58480,0,0.0,57.0,230.6,228.7,533.7,531.7,10244982,10159525,0,6199026,1816830,40459,4045954,240.53,4.113
559,2017,NonResidential,Large Office,Yale & Thomas,325 Eastlake Ave E,98109.0,7.0,LAKE UNION,47.62151,-122.32941,1981,4,1.0,186971,0,0.0,100.0,14.6,0.0,45.9,0.0,2871494,0,0,2871494,841586,0,0,11.88,0.064
561,2017,NonResidential,Large Office,Alley24,221 Yale Avenue North,98109.0,7.0,LAKE UNION,47.62029,-122.33078,2005,6,1.0,336700,124800,201820172008.0,92.0,44.0,43.0,138.2,135.1,9594585,9378472,0,9594583,2812011,0,0,39.69,0.118
562,2017,NonResidential,Retail Store,011-Seattle,222 Yale Ave. N.,98109.0,7.0,LAKE UNION,47.62,-122.33027,1996,4,1.0,264008,159994,0.0,51.0,97.4,94.4,241.1,238.0,9626197,9336291,0,6568095,1924998,30581,3058100,189.59,0.718
563,2017,NonResidential,Small- and Mid-Sized Office,Darigold HQ,1130 Rainier Ave S,98144.0,3.0,CENTRAL,47.59285,-122.30874,1914,2,1.0,89780,27560,0.0,78.0,53.5,53.5,168.1,168.1,3318427,3318427,0,3318426,972575,0,0,13.73,0.153
564,2017,NonResidential,Warehouse,Poplar Building,900 Poplar Place South,98144.0,3.0,GREATER DUWAMISH,47.59388,-122.31124,1970,1,1.0,65430,0,0.0,37.0,63.5,61.7,136.7,134.8,4157632,4037829,0,2190403,641970,19672,1967228,113.54,1.735
565,2017,NonResidential,Large Office,Northcut Landing,4915 25th Ave NE,98105.0,4.0,NORTHEAST,47.66517,-122.30186,2006,3,1.0,102290,42440,0.0,30.0,72.6,72.2,222.4,222.0,6075376,6047870,0,5855202,1716061,2201,220173,35.92,0.351
566,2017,NonResidential,Other,Pike St,1708 E Pike St,98122.0,3.0,CENTRAL,47.6144,-122.30982,1926,3,1.0,80004,0,0.0,,161.2,157.6,506.1,494.7,12066927,11795556,0,12066925,3536613,0,0,49.92,0.624
568,2017,NonResidential,Warehouse,K2 and Iron Mountain (Seattle 4),4201 6th Ave S,98108.0,2.0,GREATER DUWAMISH,47.56407,-122.32765,1991,2,1.0,323916,0,0.0,100.0,9.2,9.2,21.0,21.0,2985263,2985263,0,1753755,513996,12315,1231508,72.66,0.224
569,2017,NonResidential,Mixed Use Property,Pacific Tower,1200 12th Avenue South,98144.0,2.0,GREATER DUWAMISH,47.5928,-122.31599,1932,14,1.0,304052,0,20102008.0,69.0,70.8,70.1,203.0,201.1,21451100,21252016,0,18652465,5466725,27986,2798632,225.8,0.743
570,2017,NonResidential,Small- and Mid-Sized Office,Northwest Building,2323 Eastlake Ave E,98102.0,4.0,LAKE UNION,47.64037,-122.32626,1978,4,1.0,85385,31210,0.0,,91.5,91.5,287.4,287.4,4860489,4860489,0,4860488,1424527,0,0,20.11,0.236
571,2017,NonResidential,Distribution Center,R5NWC - Northwest Center Industries,7272 W. Marginal Way S.,98108.0,1.0,GREATER DUWAMISH,47.53687,-122.33316,1989,2,1.0,98024,0,0.0,,20.7,20.1,44.7,44.1,2016089,1960209,0,1076744,315575,9393,939345,54.34,0.554
572,2017,NonResidential,Mixed Use Property,Bright Horizons,1275 Mercer St,98109.0,7.0,LAKE UNION,47.62405,-122.33084,1928,1,1.0,65000,15000,0.0,,83.1,82.0,192.9,190.8,2493876,2460864,0,1515679,444220,9781,978196,58.22,0.896
573,2017,NonResidential,Large Office,617 Eastlake,617 Eastlake Ave E,98109.0,7.0,LAKE UNION,47.62488,-122.33007,1990,5,1.0,144573,66620,0.0,65.0,65.2,64.0,204.9,201.1,5122777,5027858,0,5122776,1501400,0,0,21.19,0.147
574,2017,NonResidential,Retail Store,(71371A) NORTHGATE Macy's,401 NE NORTHGATE WAY,98125.0,5.0,NORTH,47.70759,-122.3255,1950,2,1.0,302812,0,0.0,98.0,26.3,25.0,63.6,61.5,7957871,7578806,0,5223116,1530808,27347,2734753,166.85,0.551
575,2017,NonResidential,Small- and Mid-Sized Office,Northway Square East,2150 N 107th ST,98133.0,5.0,NORTHWEST,47.70744,-122.33171,1974,5,1.0,86400,0,0.0,57.0,112.4,110.8,225.1,222.7,8793567,8667632,0,4005819,1174038,47877,4787747,270.85,3.135
576,2017,NonResidential,Other,Northgate Village,818-832 NE Northgate Way,98125.0,5.0,North,47.7094,-122.31843,1969,2,0.0,98539,0,0.0,,54.0,53.9,165.4,165.3,5318122,5306345,0,5127909,1502904,1902,190212,31.32,0.318
577,2017,NonResidential,Small- and Mid-Sized Office,NorthWay West Building,10700 Meridian Ave North,98144.0,5.0,NORTHWEST,47.70732,-122.33279,1981,6,1.0,86483,0,0.0,52.0,79.3,76.9,248.9,241.4,6854659,6650086,0,6854658,2008985,0,0,28.36,0.328
578,2017,NonResidential,Distribution Center,Pacific Plumbing Supply,7115 W Marginal Way SW,98106.0,1.0,DELRIDGE,47.53926,-122.34143,1976,1,1.0,51600,0,0.0,76.0,23.4,22.8,57.7,57.0,1206437,1176423,0,817353,239552,3890,389083,24.05,0.466
579,2017,NonResidential,Warehouse,Jones Stevedoring Seattle Building,7245 West Marginal Way SW,98106.0,1.0,DELRIDGE,47.53689,-122.33847,1968,1,1.0,140520,0,0.0,60.0,18.0,17.0,37.7,36.6,2530254,2388378,0,1262336,369969,12679,1267917,72.56,0.516
580,2017,NonResidential,Large Office,PEMCO,1300 Dexter Ave N,98109.0,7.0,MAGNOLIA / QUEEN ANNE,47.63116,-122.34193,1986,5,1.0,154029,62380,0.0,93.0,56.4,56.4,160.5,160.5,5173012,5173012,0,4437907,1300676,7351,735104,57.4,0.373
581,2017,NonResidential,Medical Office,Meridian Medical Pavilion,11011 Meridian Ave. N,98133.0,5.0,NORTHWEST,47.70887,-122.33494,2005,3,1.0,161789,91935,0.0,3.0,99.2,96.6,311.1,303.0,6917064,6737346,0,6900808,2022511,162,16255,29.41,0.182
582,2017,NonResidential,Medical Office,McMurray Medical Building,1536 N 115th St,98113.0,5.0,NORTHWEST,47.7126,-122.33782,2005,3,1.0,63909,0,0.0,12.0,81.3,81.3,255.2,255.2,4912586,4912586,0,4912586,1439796,0,0,20.32,0.318
583,2017,NonResidential,Warehouse,Iron Mountain,1201 N. 96th St.,98103.0,5.0,NORTHWEST,47.69814,-122.34295,1948,2,1.0,53472,0,0.0,,16.1,15.9,31.3,31.1,916623,905617,0,391529,114750,5250,525093,29.51,0.552
584,2017,NonResidential,Warehouse,Lenci Corporation,428 S. Cloverdale,98108.0,1.0,GREATER DUWAMISH,47.52696,-122.32913,1980,1,1.0,50417,0,0.0,34.0,31.3,28.7,52.0,49.3,1578728,1448083,0,461205,135171,11175,1117523,61.26,1.215
585,2017,NonResidential,Medical Office,NWH Outpatient Medical Center,10330 Meridian Ave N,98133.0,5.0,NORTHWEST,47.70449,-122.33272,1961,3,1.0,133298,0,0.0,24.0,124.1,121.1,311.9,306.4,16538558,16142605,0,11582747,3394709,49558,4955808,311.12,2.334
586,2017,NonResidential,Retail Store,"SEATTLE, WA-0106",401 NE NORTHGATE WAY STE 475,98125.0,5.0,NORTH,47.70759,-122.3255,1965,2,1.0,168619,0,2009.0,81.0,38.3,36.9,105.3,102.5,6627792,6391155,0,5394189,1580946,12336,1233602,87.83,0.521
588,2017,NonResidential,Mixed Use Property,1616 Eastlake,1616 Eastlake Ave. E,98102.0,4.0,LAKE UNION,47.63451,-122.32505,2002,5,0.0,251827,113318,0.0,,317.7,314.6,710.0,702.5,53374736,52857108,0,30260615,8868879,231141,23114118,1352.78,5.372
